lat,lng,name,id,url,branch,ECP
-36.887636,174.68439009999997,Bruce Amies Pharmacy,im:fee9e6dd-f6ea-473e-b008-732f97e7129a,https://www.healthpoint.co.nz/pharmacy/pharmacy/bruce-amies-pharmacy/,pharmacy,True
-36.8514166,174.85738609999999,St Heliers Pharmacy,im:6fb47440-01f8-4c9e-ac3e-1f0ce042ea70,https://www.healthpoint.co.nz/pharmacy/pharmacy/st-heliers-pharmacy/,pharmacy,True
-45.8961175,170.50040820000004,Baylis The Chemist,im:9edeff77-c6c8-4dea-ade5-7401c0675447,https://www.healthpoint.co.nz/pharmacy/pharmacy/baylis-the-chemist/,pharmacy,True
-39.45371,173.86074940000003,Opunake Pharmacy,im:06dbf893-aa7d-493a-b514-7792d6752127,https://www.healthpoint.co.nz/pharmacy/pharmacy/opunake-pharmacy/,pharmacy,True
-44.3788802,171.2294121,Marchwiel Pharmacy,im:03baae66-8574-498f-8430-5b90cbba742b,https://www.healthpoint.co.nz/pharmacy/pharmacy/marchwiel-pharmacy/,pharmacy,True
-41.1391833,174.85000220000006,Porirua Pharmacy,im:9ebf4739-1a2e-4846-ba27-e8e8ef165e76,https://www.healthpoint.co.nz/pharmacy/pharmacy/porirua-pharmacy/,pharmacy,True
-37.7714286,175.29263689999993,Five Cross Roads Pharmacy,im:8b6d81a7-8bb5-4626-a319-6d459ca1b835,https://www.healthpoint.co.nz/pharmacy/pharmacy/five-cross-roads-pharmacy/,pharmacy,True
-43.5090503,172.5888208,Ewart Douglas Pharmacy,im:c560740e-1a0c-4b55-b9fe-bbc44d3ff8b5,https://www.healthpoint.co.nz/pharmacy/pharmacy/ewart-douglas-pharmacy/,pharmacy,True
-43.5568743,172.70126779999998,Pharmacy @ Ferrymead,im:5e43c92d-a117-458f-bb50-a4a6d5491bef,https://www.healthpoint.co.nz/pharmacy/pharmacy/pharmacy-ferrymead/,pharmacy,True
-36.7810017,174.7219662,Bentley Ave Pharmacy,im:c68f56be-5b14-4796-81e3-9d74e3dd8b08,https://www.healthpoint.co.nz/pharmacy/pharmacy/bentley-ave-pharmacy/,pharmacy,True
-37.89415169999999,175.46883550000007,Comins Pharmacy,im:c39f348c-08d7-4cfc-9484-c1f67623b820,https://www.healthpoint.co.nz/pharmacy/pharmacy/comins-pharmacy/,pharmacy,True
-37.7163169,176.17934839999998,Maungatapu Pharmacy,im:0f4c5dea-0db3-4e3b-8c76-b8a3c3663df1,https://www.healthpoint.co.nz/pharmacy/pharmacy/maungatapu-pharmacy/,pharmacy,True
-39.5370826,176.8459068,Taradale Medical Pharmacy,im:f4f5d680-eade-4e6e-8202-c09a592953e4,https://www.healthpoint.co.nz/pharmacy/pharmacy/taradale-medical-pharmacy/,pharmacy,True
-36.9769806,174.8961312,Dawson Road Pharmacy,im:ff26f9f3-258a-4e05-89e0-43239a8a0ab0,https://www.healthpoint.co.nz/pharmacy/pharmacy/dawson-road-pharmacy/,pharmacy,True
-37.71448150000001,176.1431996,Gate Pa Village Pharmacy,im:c4919f97-45f7-44fc-b104-0370badc507b,https://www.healthpoint.co.nz/pharmacy/pharmacy/gate-pa-village-pharmacy/,pharmacy,True
-37.8030808,175.281297,Hamilton Central Pharmacy,im:6752aa64-48a7-4a8e-8e16-433ef74ee5af,https://www.healthpoint.co.nz/pharmacy/pharmacy/hamilton-central-pharmacy/,pharmacy,True
-37.0313194,174.86782160000007,Healthcare Pharmacy,im:1affb611-812b-40c2-9a11-340dae0fb4f7,https://www.healthpoint.co.nz/pharmacy/pharmacy/healthcare-pharmacy/,pharmacy,True
-43.5289709,172.60520689999998,Hanafins Pharmacy,im:7c0503f4-f0ee-43ee-8bd8-02e71a95dbe7,https://www.healthpoint.co.nz/pharmacy/pharmacy/hanafins-pharmacy/,pharmacy,False
-42.4005622,173.68144619999998,Kaikoura Pharmacy,im:54a5659a-6fc5-4f63-80f2-8d1539719191,https://www.healthpoint.co.nz/pharmacy/pharmacy/kaikoura-pharmacy/,pharmacy,True
-39.5508597,174.1243882,Manaia Medicine Health & Beauty,im:1a8082c6-698d-47a0-a62f-eb1630fe57c7,https://www.healthpoint.co.nz/pharmacy/prescription-collection-depot/manaia-medicine-health-beauty/,pharmacy,False
-43.48107049999999,172.70517940000002,Unichem Parklands Pharmacy,im:a6c97dfd-d55c-4d98-bc40-1c7c70a3ae78,https://www.healthpoint.co.nz/pharmacy/pharmacy/unichem-parklands-pharmacy/,pharmacy,True
-43.5477785,172.561616,Pharmacy Now,im:3842b014-ad06-4415-8961-e4f57c2d428d,https://www.healthpoint.co.nz/pharmacy/pharmacy/pharmacy-now/,pharmacy,True
-37.6871252,176.2447017,James Village Pharmacy (previously Girven Road Pharmacy),im:35736cf9-2119-419e-91e1-9e97aed84cd9,https://www.healthpoint.co.nz/pharmacy/pharmacy/james-village-pharmacy-previously-girven/,pharmacy,True
-36.9696948,174.86272239999994,Hunters Corner Medical Centre Pharmacy,im:b80e4194-e195-4ab3-ac95-fe10f981eec3,https://www.healthpoint.co.nz/pharmacy/pharmacy/hunters-corner-medical-centre-pharmacy/,pharmacy,True
-46.1437675,167.99744310000005,Carleton's Healthcare Depot,im:d063beac-25c4-4e2f-aace-478c71942841,https://www.healthpoint.co.nz/pharmacy/prescription-collection-depot/carletons-healthcare-depot/,pharmacy,False
-37.40376020000001,175.14348140000004,Te Kauwhata Pharmacy,im:7151ff1b-014f-442a-82ea-909481364afc,https://www.healthpoint.co.nz/pharmacy/pharmacy/te-kauwhata-pharmacy/,pharmacy,True
-36.8510109,174.85752389999993,Life Pharmacy St Heliers (Formerly known as St Heliers Bay Pharmacy),im:dad98bfa-48d9-4528-8ed2-eace980e9dda,https://www.healthpoint.co.nz/pharmacy/pharmacy/life-pharmacy-st-heliers-formerly-known-as/,pharmacy,True
-43.5338526,172.6084538,Qualmed,im:a09e5910-6f7c-4979-8189-05bc32d6cfaf,https://www.healthpoint.co.nz/pharmacy/pharmacy/qualmed/,pharmacy,False
-40.35391569999999,175.6169436,Grant Irvine Pharmacy,im:1683fe12-1bf1-4abe-8ab0-a1ddf72e3ec4,https://www.healthpoint.co.nz/pharmacy/pharmacy/grant-irvine-pharmacy/,pharmacy,True
-41.226348,174.88128489999997,Burns Pharmacy,im:01224104-9023-47a3-b162-89191d1dd3aa,https://www.healthpoint.co.nz/pharmacy/pharmacy/burns-pharmacy/,pharmacy,False
-37.9747848,176.82757349999997,Edgecumbe Pharmacy,im:78a316e6-62ae-40fe-8fba-d132d7cfcfc0,https://www.healthpoint.co.nz/pharmacy/pharmacy/edgecumbe-pharmacy/,pharmacy,True
-40.3522313,175.6014106,Central Drive-In Pharmacy,im:a945b6e6-656b-48ce-81f3-4a13d8550576,https://www.healthpoint.co.nz/pharmacy/pharmacy/central-drive-in-pharmacy/,pharmacy,True
-41.3126282,173.23410480000007,Unichem Hurst and Taylor Pharmacy,im:1e201082-deed-4d37-b6d6-fba77706b67d,https://www.healthpoint.co.nz/pharmacy/pharmacy/unichem-hurst-and-taylor-pharmacy/,pharmacy,True
-36.932606781491295,174.9132227897644,"Botany Town Centre, 588 Chapel Road, East T훮maki, Auckland",im:9108d85f-9761-4eee-a362-53c2cccdc816,https://www.healthpoint.co.nz/botany-town-centre-588-chapel-road-east-tamaki/,pharmacy,False
-39.9291312,175.04802129999996,Wicksteed Pharmacy,im:deda705b-206f-4949-add5-47978501a2ed,https://www.healthpoint.co.nz/pharmacy/pharmacy/wicksteed-pharmacy/,pharmacy,True
-42.4632728,171.1920973,Te Nikau Grey Hospital,im:f7523015-eb6b-408c-8282-bde8eb8af072,https://www.healthpoint.co.nz/te-nikau-grey-hospital/,pharmacy,True
-43.53277629999999,172.63583140000003,Unichem Cashel Pharmacy,im:3bc85e33-d080-48b8-b152-df87b88dbdaa,https://www.healthpoint.co.nz/pharmacy/pharmacy/unichem-cashel-pharmacy/,pharmacy,True
-37.39107,175.84151080000004,Barron's Pharmacy,im:b8809fbe-2711-451e-b647-03428e44972d,https://www.healthpoint.co.nz/pharmacy/pharmacy/barrons-pharmacy/,pharmacy,True
-41.515842,173.95715569999993,Wairau Pharmacy,im:0ac8e492-91e6-4486-8bc2-60411794c47a,https://www.healthpoint.co.nz/pharmacy/pharmacy/wairau-pharmacy/,pharmacy,True
-45.0373503,169.19655769999997,Antidote Cromwell,im:1cc44d5d-ce6f-4062-b090-419c634a126b,https://www.healthpoint.co.nz/pharmacy/pharmacy/antidote-cromwell/,pharmacy,True
-45.0128748,168.74337689999993,Antidote Queenstown,im:3839cb59-b48b-4c4f-a8d8-40511b603390,https://www.healthpoint.co.nz/pharmacy/pharmacy/antidote-queenstown/,pharmacy,True
-36.735662,174.72740699999997,Unichem Apollo Drive Pharmacy,im:42c1f1b3-02e7-4125-b912-196b1a5dd069,https://www.healthpoint.co.nz/pharmacy/pharmacy/unichem-apollo-drive-pharmacy/,pharmacy,True
-36.7144938,174.74821499999996,Unichem Browns Bay,im:45abec58-4edc-4109-9d41-42f7e9d7a69a,https://www.healthpoint.co.nz/pharmacy/pharmacy/unichem-browns-bay/,pharmacy,True
-36.8350616,175.70472389999998,Stephensons Unichem Pharmacy,im:57a0672f-fb42-4155-83a3-ed9dd7125881,https://www.healthpoint.co.nz/pharmacy/pharmacy/stephensons-unichem-pharmacy/,pharmacy,True
-36.7140995,174.74629100000004,Bays Health Pharmacy,im:5df02929-1839-406e-8f40-cd29f0862cbc,https://www.healthpoint.co.nz/pharmacy/pharmacy/bays-health-pharmacy/,pharmacy,True
-36.84825850000001,174.74431019999997,Unichem Ponsonby Pharmacy,im:63639a26-c833-4555-8594-6d889cebb2f2,https://www.healthpoint.co.nz/pharmacy/pharmacy/unichem-ponsonby-pharmacy/,pharmacy,True
-36.8995836,174.85407570000007,Unichem Panmure Pharmacy,im:8f8a147f-0203-49cf-9bc5-e5d7ace9e149,https://www.healthpoint.co.nz/pharmacy/pharmacy/unichem-panmure-pharmacy/,pharmacy,True
-36.3974348,174.66404809999995,Life Pharmacy Franklin's,im:960f9913-73bd-407f-ad96-125bc7b4250f,https://www.healthpoint.co.nz/pharmacy/pharmacy/life-pharmacy-franklins/,pharmacy,True
-45.8549341,170.5187562,Antidote Gardens,im:aa353456-55dc-4955-9ec7-b05633bf8529,https://www.healthpoint.co.nz/pharmacy/pharmacy/antidote-gardens-1/,pharmacy,True
-36.9841389,174.87851920000003,ProHealth Manukau Pharmacy,im:ba37c72d-cc39-4c03-8fc2-e200ebca0845,https://www.healthpoint.co.nz/pharmacy/pharmacy/prohealth-manukau-pharmacy/,pharmacy,True
-46.1420194,168.3248045,Winton Pharmacy,im:ca9a582b-5e82-47da-a432-13bff5bf65ff,https://www.healthpoint.co.nz/pharmacy/pharmacy/winton-pharmacy/,pharmacy,True
-36.8829818,174.73359749999997,Life Pharmacy St Lukes,im:e81b721d-845f-47f2-a5de-9a9d00baab0c,https://www.healthpoint.co.nz/pharmacy/pharmacy/life-pharmacy-st-lukes/,pharmacy,True
-45.8678529,170.5073532,Unichem Knox Pharmacy,im:f2ee5ffb-9325-4bb4-b6f4-359b51e4cb0b,https://www.healthpoint.co.nz/pharmacy/pharmacy/unichem-knox-pharmacy/,pharmacy,True
-36.6204213,174.6715545,Unichem Weiti Pharmacy,im:f9d4a62e-54fc-449c-851a-63e0c4a04ce3,https://www.healthpoint.co.nz/pharmacy/pharmacy/unichem-weiti-pharmacy/,pharmacy,True
-43.5667997,172.64677140000003,Cashmere Pharmacy,im:18bb1542-59e9-4eb0-9361-043db36609c5,https://www.healthpoint.co.nz/pharmacy/pharmacy/cashmere-pharmacy/,pharmacy,True
-41.31600770000001,174.81504240000004,Unichem Miramar Healthcare Pharmacy,im:273443fa-b4e2-41b9-a62f-9e2587b92b71,https://www.healthpoint.co.nz/pharmacy/pharmacy/unichem-miramar-healthcare-pharmacy/,pharmacy,True
-39.028794,174.149673,Pharmacy @ Bell Block,im:2f1d6da2-8882-4561-8e1c-ceacf5827fad,https://www.healthpoint.co.nz/pharmacy/pharmacy/pharmacy-bell-block/,pharmacy,True
-41.1305899,174.8800268,Waitangirua Pharmacy,im:57f1ac87-f3e7-4f8f-8429-9f1211d674cf,https://www.healthpoint.co.nz/pharmacy/pharmacy/waitangirua-pharmacy/,pharmacy,True
-41.3043254,174.7937941,Hataitai Pharmacy,im:79a0a588-9d6f-4f0b-8e04-8fc252ec6293,https://www.healthpoint.co.nz/pharmacy/pharmacy/hataitai-pharmacy/,pharmacy,True
-36.9148413,174.80111750000003,Unichem Mt Smart Pharmacy,im:7ceb04a3-ca53-44db-9521-26b594c327fe,https://www.healthpoint.co.nz/pharmacy/pharmacy/unichem-mt-smart-pharmacy/,pharmacy,True
-45.48472760000001,170.71578439999996,Waihemo Pharmacy,im:8ebc697f-2cd7-4f42-a57b-813824841c15,https://www.healthpoint.co.nz/pharmacy/pharmacy/waihemo-pharmacy/,pharmacy,True
-40.3565526,175.61946680000005,Unichem The Palms Pharmacy,im:91124982-9681-4a10-a8b3-609cae64e432,https://www.healthpoint.co.nz/pharmacy/pharmacy/unichem-the-palms-pharmacy/,pharmacy,True
-38.8833156,175.2636089,Unichem Taumarunui Pharmacy,im:9181d34a-e7c8-469d-9f8b-bdc8cca4f05b,https://www.healthpoint.co.nz/pharmacy/pharmacy/unichem-taumarunui-pharmacy/,pharmacy,True
-39.4941981,176.9149348,Unichem Munroe St. Pharmacy,im:9adc9a66-ff41-4551-bbf1-0b051326e193,https://www.healthpoint.co.nz/pharmacy/pharmacy/unichem-munroe-st-pharmacy/,pharmacy,True
-37.03924949999999,174.91452389999995,Unichem Gateway Pharmacy Takanini,im:a78456ab-c37f-41ed-a262-8eae1fd149de,https://www.healthpoint.co.nz/pharmacy/pharmacy/unichem-gateway-pharmacy-takanini/,pharmacy,True
-43.3035944,172.59362099999998,Life Pharmacy Rangiora,im:b0eb97e5-0ccc-4a4f-a7a2-fa3d47faf328,https://www.healthpoint.co.nz/pharmacy/pharmacy/life-pharmacy-rangiora/,pharmacy,True
-37.3917166,175.84041920000004,Clark's Pharmacy Limited,im:ed951698-671b-4c19-93b6-43a8fc299e4d,https://www.healthpoint.co.nz/pharmacy/pharmacy/clarks-pharmacy-limited/,pharmacy,True
-40.9159633,175.0066267,Life Pharmacy Kapiti Coast,im:ef9c2574-3b99-4465-b851-778fe0240b18,https://www.healthpoint.co.nz/pharmacy/pharmacy/life-pharmacy-kapiti-coast/,pharmacy,True
-40.9499064,175.66120780000006,Life Pharmacy Masterton,im:f8cde177-440a-4927-beb1-9a6dc7412072,https://www.healthpoint.co.nz/pharmacy/pharmacy/life-pharmacy-masterton/,pharmacy,True
-42.4497378,171.2106761,Unichem Olsen's Pharmacy,im:fe6e29b2-e385-47c6-8353-af53fe56b260,https://www.healthpoint.co.nz/pharmacy/pharmacy/unichem-olsens-pharmacy/,pharmacy,True
-37.8168604,175.28300209999998,Unichem Glenview Medical Pharmacy,im:74bdbf3b-168e-4147-9807-3e447e6462f3,https://www.healthpoint.co.nz/pharmacy/pharmacy/unichem-glenview-medical-pharmacy/,pharmacy,True
-37.8173419,175.28261199999997,Unichem Glenview Pharmacy,im:29f7270a-5d33-4a89-a47c-7a6706397cdb,https://www.healthpoint.co.nz/pharmacy/pharmacy/unichem-glenview-pharmacy/,pharmacy,False
-37.0584052,174.95326239999997,Clevedon Road Pharmacy,im:2b1d8fe9-d7c2-4c5c-8773-146053152ccf,https://www.healthpoint.co.nz/pharmacy/pharmacy/clevedon-road-pharmacy-1/,pharmacy,True
-38.37063570000001,175.77413909999996,Mangakino Pharmacy Depot,im:7f844d94-53ae-4350-98c9-ad3989ce3ecf,https://www.healthpoint.co.nz/pharmacy/prescription-collection-depot/mangakino-pharmacy-depot/,pharmacy,False
-36.9063797,174.70190100000002,Glenavon Kiwi Chemist,im:234afa3f-41a6-4747-8d70-521f9edbc8dc,https://www.healthpoint.co.nz/pharmacy/pharmacy/glenavon-kiwi-chemist/,pharmacy,True
-37.067553,174.93090900000004,Pahurehure Pharmacy,im:60f663a8-9634-4825-8ad8-ad4ec63eb368,https://www.healthpoint.co.nz/pharmacy/pharmacy/pahurehure-pharmacy/,pharmacy,True
-37.7963114,178.4106613,Tikitiki Collection Depot - Gordon's Pharmacy,im:96129224-af05-4cf2-9893-27f00a1b7bc0,https://www.healthpoint.co.nz/pharmacy/prescription-collection-depot/tikitiki-collection-depot-gordons-pharmacy/,pharmacy,False
-37.03272739999999,174.8680019,Clendon Pharmacy,im:05806c8c-3cdd-4f4c-8aef-2213e25a6e8f,https://www.healthpoint.co.nz/pharmacy/pharmacy/clendon-pharmacy/,pharmacy,True
-40.1739202,175.38616679999996,Platt's Pharmacy Ltd,im:d37554ba-132f-4d4a-9b1e-6aa2ea38a0f5,https://www.healthpoint.co.nz/pharmacy/pharmacy/platts-pharmacy-ltd/,pharmacy,True
-41.2238274,174.8062711,Life Pharmacy Johnsonville,im:fbd7dc8d-2351-406d-b4ee-0e2bd73cb3dc,https://www.healthpoint.co.nz/pharmacy/pharmacy/life-pharmacy-johnsonville/,pharmacy,True
-39.0564797,174.0735928,Life Pharmacy New Plymouth,im:51dc6ed3-5d7b-473e-8865-b477b0e6b9f2,https://www.healthpoint.co.nz/pharmacy/pharmacy/life-pharmacy-new-plymouth/,pharmacy,True
-36.7605487,174.73950360000003,Link Pharmacy,im:6b4e6038-354b-4dc8-8bf5-8a2456b03042,https://www.healthpoint.co.nz/pharmacy/pharmacy/link-pharmacy/,pharmacy,True
-43.38123969999999,172.6362604,Silverstream Kaiapoi Pharmacy,im:8441ba3d-dd89-4eba-9a0e-78421b55fbf6,https://www.healthpoint.co.nz/pharmacy/pharmacy/silverstream-kaiapoi-pharmacy/,pharmacy,True
-36.8503737,174.85862959999997,St Heliers Unichem Pharmacy,im:48f70e1b-03bc-40aa-bea8-1775d7100c84,https://www.healthpoint.co.nz/pharmacy/pharmacy/st-heliers-unichem-pharmacy/,pharmacy,True
-37.7955605,175.2458444,Te Ara Manaaki Pharmacy,im:e9366ef3-c356-4850-b4b6-5e025f8f1d25,https://www.healthpoint.co.nz/pharmacy/pharmacy/te-ara-manaaki-pharmacy/,pharmacy,True
-38.2309197,175.86075670000002,Unichem Health Centre Pharmacy,im:3131531f-336d-4baf-ba71-b3e7acd74838,https://www.healthpoint.co.nz/pharmacy/pharmacy/unichem-health-centre-pharmacy/,pharmacy,True
-38.2183717,175.87271199999998,Unichem Tokoroa Pharmacy,im:d6de4488-d1aa-4d37-a599-5dc20723ffb1,https://www.healthpoint.co.nz/pharmacy/pharmacy/unichem-tokoroa-pharmacy/,pharmacy,True
-36.89961399999999,174.90510140000004,Unichem Aviemore Pharmacy,im:f3d8efbb-d959-4a13-8fb8-cd5b9cc756c9,https://www.healthpoint.co.nz/pharmacy/pharmacy/unichem-aviemore-pharmacy/,pharmacy,True
-43.5211494,172.64190259999998,Unichem Bealey Avenue Pharmacy,im:9c7ad5b4-e42a-4c9d-a598-a796c0afe91e,https://www.healthpoint.co.nz/pharmacy/pharmacy/unichem-bealey-avenue-pharmacy/,pharmacy,True
-36.9265057,174.67020320000006,Unichem Golf Road Pharmacy,im:9df211da-b8c1-4988-abd2-3b94f88744a4,https://www.healthpoint.co.nz/pharmacy/pharmacy/unichem-golf-road-pharmacy/,pharmacy,True
-35.2274577,173.94773659999998,Unichem Kerikeri Medical Centre Pharmacy,im:2faa8a79-cfbd-4af8-9971-77d1461f06ef,https://www.healthpoint.co.nz/pharmacy/pharmacy/unichem-kerikeri-medical-centre-pharmacy/,pharmacy,True
-36.9048545,174.68445129999998,Unichem New Lynn Pharmacy,im:824f6705-40f7-4293-88c1-662170f68e6a,https://www.healthpoint.co.nz/pharmacy/pharmacy/unichem-new-lynn-pharmacy/,pharmacy,True
-36.92089550000001,174.7362352,Unichem Roskill Village Pharmacy,im:af7f1408-1863-4e10-aa48-f2f4c3efe0ed,https://www.healthpoint.co.nz/pharmacy/pharmacy/unichem-roskill-village-pharmacy/,pharmacy,True
-45.0018828,168.7817782,Unichem Shotover Pharmacy,im:a6893592-b09c-4b3e-b45a-417d497e7b7d,https://www.healthpoint.co.nz/pharmacy/pharmacy/unichem-shotover-pharmacy/,pharmacy,True
-41.1216639,175.073129,Unichem Upper Hutt Health Pharmacy,im:a519661c-cd80-4383-978f-7fdc70f8a8b0,https://www.healthpoint.co.nz/pharmacy/pharmacy/unichem-upper-hutt-health-pharmacy/,pharmacy,True
-38.140970986257976,176.2514841556549,Unichem The Mall Pharmacy,im:5d35e15a-2d0b-4dbc-a8cb-c29c2cdec6c7,https://www.healthpoint.co.nz/pharmacy/pharmacy/unichem-the-mall-pharmacy/,pharmacy,True
-40.87607749999999,175.06364029999997,Unichem Waikanae Health Pharmacy,im:faff95bb-17e2-4452-b2ac-34c2c236f5c7,https://www.healthpoint.co.nz/pharmacy/pharmacy/unichem-waikanae-health-pharmacy/,pharmacy,False
-39.0618726,174.06800380000004,Vivian Pharmacy,im:2df466a9-4b82-478d-9cb8-43d9ee105ad0,https://www.healthpoint.co.nz/pharmacy/pharmacy/vivian-pharmacy/,pharmacy,True
-35.2107813,173.9181135,Waipapa Unichem Pharmacy,im:f2a2cc6a-4d6a-44e3-8412-761f54a7042b,https://www.healthpoint.co.nz/pharmacy/pharmacy/waipapa-unichem-pharmacy/,pharmacy,True
-41.21459469999999,174.9223174,Waterloo Pharmacy,im:65ea22a6-9ad4-4d95-a413-bc20be494f06,https://www.healthpoint.co.nz/pharmacy/pharmacy/waterloo-pharmacy/,pharmacy,True
-36.2951177,174.5233285,Wellsford Pharmacy,im:1c5ece13-ff7d-488a-890a-e80d65e92fe8,https://www.healthpoint.co.nz/pharmacy/pharmacy/wellsford-pharmacy/,pharmacy,False
-39.4775552,176.88156449999997,Westshore Pharmacy,im:92512bc1-1aea-4993-8ed2-3d9ec003e961,https://www.healthpoint.co.nz/pharmacy/pharmacy/westshore-pharmacy/,pharmacy,True
-37.0430362,174.8655899,Weymouth Whanau Pharmacy,im:95ba7cad-8320-46c1-9451-ac0c46d3dfa8,https://www.healthpoint.co.nz/pharmacy/pharmacy/weymouth-whanau-pharmacy/,pharmacy,True
-35.7229913,174.3161963,"27 Rust Avenue, Whang훮rei",im:3a603e9d-efd7-4267-a672-34e13577f43e,https://www.healthpoint.co.nz/27-rust-avenue-whangarei-1/,pharmacy,True
-38.6522689,178.02931939999996,Pharmacy 53 Ltd,im:3ffd2607-1838-4b01-88fe-313f0230f8ec,https://www.healthpoint.co.nz/pharmacy/pharmacy/pharmacy-53-ltd/,pharmacy,True
-36.7898548,174.7726303,Takapuna Pharmacy,im:ca0f4e3f-6fc1-4d36-8706-903f68945c04,https://www.healthpoint.co.nz/pharmacy/pharmacy/takapuna-pharmacy/,pharmacy,True
-43.49957000000001,172.58612549999998,Unichem Crisps Pharmacy,im:5c0cfb84-7d32-432a-b53e-4873f72aa373,https://www.healthpoint.co.nz/pharmacy/pharmacy/unichem-crisps-pharmacy/,pharmacy,True
-35.755039,174.36810530000002,Unichem Onerahi Pharmacy,im:325bbd3a-0b73-492c-aecb-5c6c933cc75a,https://www.healthpoint.co.nz/pharmacy/pharmacy/unichem-onerahi-pharmacy/,pharmacy,True
-39.64262540000001,176.8428173,Unichem Russell Street Pharmacy,im:3cce3308-65af-4765-915a-51f752df3b09,https://www.healthpoint.co.nz/pharmacy/pharmacy/unichem-russell-street-pharmacy/,pharmacy,True
-37.1386916,175.54238250000003,Unichem Thames,im:1e925b0c-25c2-4cd4-a3fb-e61b7bd06793,https://www.healthpoint.co.nz/pharmacy/pharmacy/unichem-thames/,pharmacy,True
-36.880822,174.63275999999996,Unichem Westcity Pharmacy,im:7ca787d2-9af0-4b1b-b996-90e347a6411a,https://www.healthpoint.co.nz/pharmacy/pharmacy/unichem-westcity-pharmacy/,pharmacy,True
-41.2080139,174.87831689999996,Maungaraki Pharmacy,im:a8cf829a-4d5b-495f-9dcf-79c73333c43b,https://www.healthpoint.co.nz/pharmacy/pharmacy/maungaraki-pharmacy/,pharmacy,True
-36.88976820000001,175.0111382,Pohutukawa Coast Pharmacy,im:ff029b85-f5c0-404f-8ea8-26d02d8f3aaf,https://www.healthpoint.co.nz/pharmacy/pharmacy/pohutukawa-coast-pharmacy/,pharmacy,True
-41.2253125,174.87846850000005,Unichem Petone Pharmacy,im:ad1d2064-5544-40f4-bdbe-981fb153fba9,https://www.healthpoint.co.nz/pharmacy/pharmacy/unichem-petone-pharmacy/,pharmacy,True
-39.9317726,175.0218188,Unichem Whanganui Pharmacy,im:513b62a7-e417-424a-a2fa-686e5e70676f,https://www.healthpoint.co.nz/pharmacy/pharmacy/unichem-whanganui-pharmacy/,pharmacy,True
-39.6406848,176.8448039,Bay Plaza Pharmacy,im:ccc158cb-29f9-49db-b736-29d138e41251,https://www.healthpoint.co.nz/pharmacy/pharmacy/bay-plaza-pharmacy/,pharmacy,True
-41.5136304,173.9569295,Life Pharmacy Blenheim,im:d1a232c4-ca3c-4552-8c90-df9be06f1830,https://www.healthpoint.co.nz/pharmacy/pharmacy/life-pharmacy-blenheim/,pharmacy,True
-36.89987999999999,174.90785649999998,Unichem Highland Park Pharmacy,im:ce70b051-0799-4225-a0aa-2c53c67de5fa,https://www.healthpoint.co.nz/pharmacy/pharmacy/unichem-highland-park-pharmacy/,pharmacy,True
-40.2270525,175.56358,Central Feilding Pharmacy,im:7d77fb6a-fc50-444d-addd-d56087ff1fa8,https://www.healthpoint.co.nz/pharmacy/pharmacy/central-feilding-pharmacy/,pharmacy,True
-37.738107,175.25274379999996,Unichem Flagstaff Pharmacy,im:634e54a8-cfd5-4809-9455-cb160e8eade6,https://www.healthpoint.co.nz/pharmacy/pharmacy/unichem-flagstaff-pharmacy/,pharmacy,True
-45.8158146,170.62125620000006,Port Chalmers Pharmacy,im:08071798-b5fc-43c8-9a0b-80e68226d186,https://www.healthpoint.co.nz/pharmacy/pharmacy/port-chalmers-pharmacy/,pharmacy,True
-38.638008,178.00511800000004,Gisborne Hospital Pharmacy | Tair훮whiti | Te Whatu Ora,im:b0c0c24f-cc9d-43d2-b265-5e5cd991080d,https://www.healthpoint.co.nz/pharmacy/hospital-pharmacy/gisborne-hospital-pharmacy-tairawhiti-te/,pharmacy,False
-39.0562285,174.0825008,Bargain Chemist New Plymouth Central,im:9a24426f-c184-42df-b2c1-8a69aba43310,https://www.healthpoint.co.nz/pharmacy/pharmacy/bargain-chemist-new-plymouth-central/,pharmacy,True
-36.8128136,174.6010766,Bargain Chemist Westgate,im:04bb599a-3b42-4fa4-b655-5983f80588bd,https://www.healthpoint.co.nz/pharmacy/pharmacy/bargain-chemist-westgate/,pharmacy,True
-36.9009279,174.85735060000002,Panmure Pharmacy,im:c31a8776-a276-4974-8f12-19fe5bb12252,https://www.healthpoint.co.nz/pharmacy/pharmacy/panmure-pharmacy/,pharmacy,True
-36.9000737,174.90868,Family Care Pharmacy,im:f7997081-56f6-417e-9399-09f1681d7dc9,https://www.healthpoint.co.nz/pharmacy/pharmacy/family-care-pharmacy/,pharmacy,True
-35.7235496,174.31822080000006,Rust Avenue Pharmacy,im:97842117-d8ea-46da-b4b9-838e741beb75,https://www.healthpoint.co.nz/pharmacy/pharmacy/rust-avenue-pharmacy/,pharmacy,True
-37.0395903,174.9148348,Takanini Urgent Pharmacy,im:4933076a-0d6e-4a3f-ac48-19f588bbf16b,https://www.healthpoint.co.nz/pharmacy/pharmacy/takanini-urgent-pharmacy/,pharmacy,True
-36.87894779999999,174.6318222,Henderson Discount Pharmacy,im:fdab87d2-d264-4f2f-bbe8-db032d7c08ad,https://www.healthpoint.co.nz/pharmacy/pharmacy/henderson-discount-pharmacy/,pharmacy,True
-46.40591999999999,168.3925772,Unichem Ascot Pharmacy,im:b511f6e4-9a43-4477-828d-74f35cdb8b61,https://www.healthpoint.co.nz/pharmacy/pharmacy/unichem-ascot-pharmacy/,pharmacy,True
-41.28848329999999,174.769051,Unichem University Pharmacy,im:27053968-be3f-4a01-a837-3c798c55c9c4,https://www.healthpoint.co.nz/pharmacy/pharmacy/unichem-university-pharmacy/,pharmacy,True
-41.3134091,174.7788387,Newtown Medical Centre Dispensary,im:116508ec-19b4-409c-9f32-2a6d5cfddf01,https://www.healthpoint.co.nz/pharmacy/pharmacy/newtown-medical-centre-dispensary/,pharmacy,False
-38.1378563,176.24799380000002,Hinemoa Pharmacy,im:65a12f93-1427-4cfd-8477-dd7df5f08eab,https://www.healthpoint.co.nz/pharmacy/pharmacy/hinemoa-pharmacy/,pharmacy,True
-37.9609997,176.9819936,Unichem Adamson's Pharmacy,im:9d6736fa-2ba4-4255-a2f4-418b6f371ca3,https://www.healthpoint.co.nz/pharmacy/pharmacy/unichem-adamsons-pharmacy/,pharmacy,True
-45.7393325,168.44161140000006,Lumsden Prescription and Gift Centre,im:7415c162-7250-4660-8133-f2ebf293dc25,https://www.healthpoint.co.nz/pharmacy/prescription-collection-depot/lumsden-prescription-and-gift-centre/,pharmacy,False
-39.4197328,176.8661124,Bay View Village Pharmacy,im:adafeb69-f6f5-4b1f-bad3-3c163a627c98,https://www.healthpoint.co.nz/pharmacy/pharmacy/bay-view-village-pharmacy/,pharmacy,True
-41.5133849,173.9554352,Civic Health Pharmacy,im:0c272bf1-3eb1-49f3-9ba9-a1ec920f594f,https://www.healthpoint.co.nz/pharmacy/pharmacy/civic-health-pharmacy/,pharmacy,True
-36.86470559999999,174.7376719,Gopal's Pharmacy,im:b4ac04b3-4442-4c00-975d-3cdee84c403f,https://www.healthpoint.co.nz/pharmacy/pharmacy/gopals-pharmacy/,pharmacy,True
-36.3520952,174.7175744,Matakana Pharmacy,im:e0110b7b-acb6-416c-b35b-b6fdb46f9158,https://www.healthpoint.co.nz/pharmacy/pharmacy/matakana-pharmacy/,pharmacy,True
-36.8981391,174.80961430000002,Unichem Ellerslie Pharmacy,im:430167c5-ac75-4829-9391-d46967b9364e,https://www.healthpoint.co.nz/pharmacy/pharmacy/unichem-ellerslie-pharmacy/,pharmacy,True
-43.5315249,172.5718254,Unichem Riccarton Clinic Pharmacy,im:b5ee3d7e-f21c-481d-aa36-563a467702c0,https://www.healthpoint.co.nz/pharmacy/pharmacy/unichem-riccarton-clinic-pharmacy/,pharmacy,True
-36.924081,174.7814513,Vaiola Pharmacy,im:bc061063-c290-41e3-9224-4c1b850d7225,https://www.healthpoint.co.nz/pharmacy/pharmacy/vaiola-pharmacy/,pharmacy,True
-41.22278180000001,174.91127619999997,Woburn Pharmacy,im:5459eee0-7a45-4b38-9796-1d750c90b44d,https://www.healthpoint.co.nz/pharmacy/pharmacy/woburn-pharmacy/,pharmacy,True
-39.4799909,176.8986603,Ahuriri Pharmacy,im:081af214-e9fb-4eda-8410-82cd737e5d00,https://www.healthpoint.co.nz/pharmacy/pharmacy/ahuriri-pharmacy/,pharmacy,True
-38.6699891,178.025246,Pharmacy Three Rivers - Gisborne,im:a590a21f-6f15-4dfe-b39e-4140e1d21498,https://www.healthpoint.co.nz/pharmacy/pharmacy/pharmacy-three-rivers-gisborne/,pharmacy,False
-37.2143371,174.91007360000003,Pukekohe South Pharmacy,im:7ae0fdff-aceb-45f9-9165-68ecddf8db54,https://www.healthpoint.co.nz/pharmacy/pharmacy/pukekohe-south-pharmacy/,pharmacy,True
-43.64181079999999,172.47490900000003,WeCare Pharmacy Lincoln,im:a58e9384-0574-47ba-8fd6-064ce7a1d388,https://www.healthpoint.co.nz/pharmacy/pharmacy/wecare-pharmacy-lincoln/,pharmacy,True
-40.3660107,175.6069971,Cook Street Pharmacy,im:c3037fc8-879e-4baa-b5d5-d63c22108f11,https://www.healthpoint.co.nz/pharmacy/pharmacy/cook-street-pharmacy/,pharmacy,True
-36.8608309,174.76773649999996,Grafton Pharmacy,im:a7b53944-04cc-4aa0-b192-2b046b62c253,https://www.healthpoint.co.nz/pharmacy/pharmacy/grafton-pharmacy/,pharmacy,True
-41.2789021,173.76670680000007,Havelock Healthcare Depot,im:69908eab-9619-4e49-8f8f-76920f043169,https://www.healthpoint.co.nz/pharmacy/prescription-collection-depot/havelock-healthcare-depot/,pharmacy,False
-37.02049969999999,174.8971001,Hill Road Pharmacy,im:679472b3-14de-4573-b159-40fa7b0660d0,https://www.healthpoint.co.nz/pharmacy/pharmacy/hill-road-pharmacy/,pharmacy,True
-35.9846759,174.4460508,Waipu Pharmacy,im:99bb936f-7338-4057-881f-3517c256f871,https://www.healthpoint.co.nz/pharmacy/pharmacy/waipu-pharmacy/,pharmacy,True
-41.5295704,173.9339644,Omaka Landing Pharmacy,im:a852b9c5-eac4-42ab-807a-2b5b3adb94bc,https://www.healthpoint.co.nz/pharmacy/pharmacy/omaka-landing-pharmacy/,pharmacy,True
-44.3901301,171.22647959999995,Unichem Highfield Mall Pharmacy,im:b260c3e2-5392-44e8-9462-57f9a6378084,https://www.healthpoint.co.nz/pharmacy/pharmacy/unichem-highfield-mall-pharmacy/,pharmacy,True
-41.2470271,174.79160390000004,Village Pharmacy Khandallah,im:9430159f-a9ce-4504-b476-90b47ed97332,https://www.healthpoint.co.nz/pharmacy/pharmacy/village-pharmacy-khandallah/,pharmacy,True
-37.69355160000001,176.11122999999998,Bethlehem Dispensary,im:a278c25c-7adf-4c96-8593-24008dc71df5,https://www.healthpoint.co.nz/pharmacy/pharmacy/bethlehem-dispensary/,pharmacy,True
-37.6957574,176.11016159999997,Bethlehem Pharmacy,im:5afde75d-b04a-4961-9aa6-9d7a62b89676,https://www.healthpoint.co.nz/pharmacy/pharmacy/bethlehem-pharmacy/,pharmacy,True
-34.9915772,173.51018780000004,Doubtless Bay Pharmacy,im:25cdc481-2b68-4723-99cd-14f4ca929137,https://www.healthpoint.co.nz/pharmacy/pharmacy/doubtless-bay-pharmacy/,pharmacy,True
-37.9520488,176.9951608,Life Pharmacy Whakatane,im:84746551-e915-4b00-a1d4-111ec820f2db,https://www.healthpoint.co.nz/pharmacy/pharmacy/life-pharmacy-whakatane/,pharmacy,True
-35.0998666,173.7789259,Kaeo Chemist Ltd,im:5d013f24-183f-432c-9f63-0ca166efec3e,https://www.healthpoint.co.nz/pharmacy/pharmacy/kaeo-chemist-ltd/,pharmacy,True
-36.094948,174.58742800000005,Mangawhai Pharmacy,im:0f26f66a-c3ca-4225-91f7-1c0cbcfcccb0,https://www.healthpoint.co.nz/pharmacy/pharmacy/mangawhai-pharmacy/,pharmacy,True
-35.39369660000001,173.50459239999998,Rawene Pharmacy,im:a9990bd3-2c71-4a96-8730-5d4e02b66aba,https://www.healthpoint.co.nz/pharmacy/pharmacy/rawene-pharmacy/,pharmacy,False
-35.12017595364606,173.2603919506073,Te Hiku Pharmacy,im:46d8f365-9335-4c74-8b5a-14751b368637,https://www.healthpoint.co.nz/pharmacy/pharmacy/te-hiku-pharmacy/,pharmacy,False
-35.8743103,174.45566159999998,Unichem Orrs Pharmacy Ruakaka,im:3cf9b56e-215c-4411-a940-2814b9c62518,https://www.healthpoint.co.nz/pharmacy/pharmacy/unichem-orrs-pharmacy-ruakaka/,pharmacy,True
-37.972356,177.05840090000004,Ohope Beach Pharmacy,im:f5de4aaf-6537-4b0a-b47a-c5fcd2972896,https://www.healthpoint.co.nz/pharmacy/pharmacy/ohope-beach-pharmacy/,pharmacy,True
-37.7424922,176.12280859999998,Pyes Pa Pharmacy,im:6d98e732-31cd-4049-a1e5-f6dbc5b0eee0,https://www.healthpoint.co.nz/pharmacy/pharmacy/pyes-pa-pharmacy/,pharmacy,True
-37.707921146295746,176.14744228212442,Tauranga Hospital,im:6320cf38-bd28-4883-b45e-0f173ebb0dfe,https://www.healthpoint.co.nz/tauranga-hospital/,pharmacy,False
-37.7371298,176.1062486,The Crossing Pharmacy,im:eca75c7d-80c3-4d81-bbc4-4653f5aac638,https://www.healthpoint.co.nz/pharmacy/pharmacy/the-crossing-pharmacy/,pharmacy,True
-37.69277819999999,176.16391959999999,Unichem Fifth Avenue Pharmacy,im:8779a2f1-887d-4cc8-9175-caf326de71e4,https://www.healthpoint.co.nz/pharmacy/pharmacy/unichem-fifth-avenue-pharmacy/,pharmacy,True
-37.7263859,176.13331010000002,Unichem Greerton Pharmacy,im:7c151ca9-7ce1-4fd8-ba81-8f0e3ab3babf,https://www.healthpoint.co.nz/pharmacy/pharmacy/unichem-greerton-pharmacy/,pharmacy,True
-37.55287719999999,175.9173594,Unichem Katikati Pharmacy,im:5d88bc6c-4249-482a-a06a-7e197bf066f5,https://www.healthpoint.co.nz/pharmacy/pharmacy/unichem-katikati-pharmacy/,pharmacy,True
-37.6936623,176.10962900000004,"Bethlehem Town Centre, 19 Bethlehem Road, Bethlehem, Tauranga",im:2baf4020-8d4c-440c-bbaa-c040d0a8b703,https://www.healthpoint.co.nz/bethlehem-town-centre-19-bethlehem-road-bethlehem/,pharmacy,True
-37.6666236,176.1394904,Unichem Otumoetai Pharmacy,im:cf79c437-a488-46ae-a893-ac6924707918,https://www.healthpoint.co.nz/pharmacy/pharmacy/unichem-otumoetai-pharmacy/,pharmacy,True
-43.1568177,172.73038580000002,Amberley Pharmacy,im:76312542-ba70-408f-b5cb-b71f8747a326,https://www.healthpoint.co.nz/pharmacy/pharmacy/amberley-pharmacy/,pharmacy,True
-36.992938038023404,174.860919713974,Cavendish Drive Pharmacy,im:4632e071-f4cf-4b68-8d35-cbb96b78cd5e,https://www.healthpoint.co.nz/pharmacy/pharmacy/cavendish-drive-pharmacy/,pharmacy,True
-43.5172734,172.7021029,Eastern Pharmacy Aranui,im:652edcff-8b2b-4930-afb3-80a58df26e17,https://www.healthpoint.co.nz/pharmacy/pharmacy/eastern-pharmacy-aranui/,pharmacy,True
-36.97489789999999,174.92300139999998,Flat Bush Medical Centre Pharmacy,im:b7b68796-cb83-43d7-a1df-6e1acad068ed,https://www.healthpoint.co.nz/pharmacy/pharmacy/flat-bush-medical-centre-pharmacy/,pharmacy,True
-36.9893066,174.87496929999998,Jaks Pharmacy,im:031a5eb6-4305-489e-b8b2-d4e9c8545da4,https://www.healthpoint.co.nz/pharmacy/pharmacy/jaks-pharmacy/,pharmacy,True
-36.990874450361204,174.88170644254473,"Westfield Manukau City, Cnr Great South and Wiri Station Roads, Manukau, Auckland",im:00595b16-c68c-4059-855d-b0e69a2025a0,https://www.healthpoint.co.nz/westfield-manukau-city-cnr-great-south-and/,pharmacy,True
-43.5119218,172.5802312,Unichem Ilam Healthworks Pharmacy,im:05db63bd-7110-420f-b089-789d06ba8f15,https://www.healthpoint.co.nz/pharmacy/pharmacy/unichem-ilam-healthworks-pharmacy/,pharmacy,True
-42.5201144,172.8291921,HealthWorks Pharmacy Depot - Hanmer Springs,im:ea831b45-5bcf-402c-975e-2b7a380d8906,https://www.healthpoint.co.nz/pharmacy/prescription-collection-depot/healthworks-pharmacy-depot-hanmer-springs/,pharmacy,False
-36.96472610000001,174.9127031,Life Pharmacy Ormiston,im:0ab02a09-f98c-4dbc-b835-70f3be3228d7,https://www.healthpoint.co.nz/pharmacy/pharmacy/life-pharmacy-ormiston/,pharmacy,True
-37.1869953,174.922089,Newsham Park Pharmacy,im:01890222-c7f6-414f-8775-52708d9a15ca,https://www.healthpoint.co.nz/pharmacy/pharmacy/newsham-park-pharmacy/,pharmacy,True
-36.94441069999999,174.84672969999997,Otahuhu Community Pharmacy,im:ac0e3fc0-bb72-4826-add0-bc9f4a534976,https://www.healthpoint.co.nz/pharmacy/pharmacy/otahuhu-community-pharmacy/,pharmacy,True
-37.020485685455874,174.86460506916046,Peter Boles Pharmacy,im:76a9731e-e57d-4d35-9518-ffd02b7bb306,https://www.healthpoint.co.nz/pharmacy/pharmacy/peter-boles-pharmacy/,pharmacy,True
-36.9705075,174.8620062,ProHealth Papatoetoe Pharmacy,im:dc5fc1e5-947e-4c27-801f-f377d27731a9,https://www.healthpoint.co.nz/pharmacy/pharmacy/prohealth-papatoetoe-pharmacy/,pharmacy,True
-43.4943164,172.6097578,Life Pharmacy Northlands,im:ee2f8e02-0316-44ea-bf0f-c97fdd466fbe,https://www.healthpoint.co.nz/pharmacy/pharmacy/life-pharmacy-northlands/,pharmacy,True
-37.2017804,174.9023068,Pukekohe Plaza Pharmacy,im:3e794c3b-ec44-4f5e-9835-ed5be96e71b9,https://www.healthpoint.co.nz/pharmacy/pharmacy/pukekohe-plaza-pharmacy/,pharmacy,True
-36.9462635,174.84423449999997,Queen St Medical Centre Pharmacy,im:78aa62b6-fcc0-4988-8683-b46a46f4d6eb,https://www.healthpoint.co.nz/pharmacy/pharmacy/queen-st-medical-centre-pharmacy/,pharmacy,True
-43.53106664832302,172.65679998710254,Linwood Village Pharmacy,im:f5c6598c-565d-4c81-bf1e-5b1e6307a18d,https://www.healthpoint.co.nz/pharmacy/pharmacy/linwood-village-pharmacy/,pharmacy,True
-39.43139499999999,174.29956,Eltham Pharmacy Depot,im:cfc519a8-9ddf-4aa6-a264-b6ab9dbbb2d2,https://www.healthpoint.co.nz/pharmacy/prescription-collection-depot/eltham-pharmacy-depot/,pharmacy,False
-43.63366449999999,171.64693409999995,Methven Pharmacy,im:f3725d62-051e-4c05-85d4-204e1c14255c,https://www.healthpoint.co.nz/pharmacy/pharmacy/methven-pharmacy/,pharmacy,False
-39.0665723,174.10286240000005,Merrilands Pharmacy,im:3917e331-eba5-48e1-9b9c-493f1246f661,https://www.healthpoint.co.nz/pharmacy/pharmacy/merrilands-pharmacy/,pharmacy,True
-38.00523469999999,177.2847276,Opotiki Pharmacy,im:64f0d069-a1ac-46bb-9069-46f08dfaf97f,https://www.healthpoint.co.nz/pharmacy/pharmacy/opotiki-pharmacy/,pharmacy,True
-43.6404544,172.48476140000002,Selwyn Community Pharmacy,im:dd5b1970-4905-4e83-be5c-c516b7ff7fc4,https://www.healthpoint.co.nz/pharmacy/pharmacy/selwyn-community-pharmacy/,pharmacy,True
-39.7562441,174.47394310000004,Patea  Pharmacy,im:78722807-f510-4831-a451-8037532b45fe,https://www.healthpoint.co.nz/pharmacy/pharmacy/patea-pharmacy/,pharmacy,True
-43.5584292,172.65425389999996,St Martins Pharmacy,im:23c60ecd-10e0-41e8-8ea9-ed85aafa9816,https://www.healthpoint.co.nz/pharmacy/pharmacy/st-martins-pharmacy/,pharmacy,True
-39.5890479,174.2832989,Robertsons Pharmacy Hawera,im:8b044d0a-9402-4e91-90a4-8fe932d27727,https://www.healthpoint.co.nz/pharmacy/pharmacy/robertsons-pharmacy-hawera/,pharmacy,True
-43.3019382,172.59564520000004,Stans 7 Day Pharmacy,im:591bc187-b577-4227-888a-007b7b5829a4,https://www.healthpoint.co.nz/pharmacy/pharmacy/stans-7-day-pharmacy/,pharmacy,True
-37.7914843,175.2827947,Unichem Hamilton Pharmacy,im:f54f0d3a-ef15-48ac-8805-9b43ec1ffff2,https://www.healthpoint.co.nz/pharmacy/pharmacy/unichem-hamilton-pharmacy/,pharmacy,True
-39.3390255,174.2843037,Stratford Pharmacy,im:6c997407-1ae3-4b22-bac7-d078d7bbacf5,https://www.healthpoint.co.nz/pharmacy/pharmacy/stratford-pharmacy/,pharmacy,True
-43.44468639999999,172.63287760000003,Unichem Belfast Pharmacy,im:b5425194-7ebd-4504-9f16-d21df7ce1a9c,https://www.healthpoint.co.nz/pharmacy/pharmacy/unichem-belfast-pharmacy/,pharmacy,True
-37.79256728116026,175.28310811667177,Anglesea Pharmacy,im:7cbf98b9-0e96-4f08-87be-170a12e882df,https://www.healthpoint.co.nz/pharmacy/pharmacy/anglesea-pharmacy/,pharmacy,True
-43.90251,171.75166869999998,Wises Pharmacy,im:bde707bb-4428-4183-947d-8b67fec02d7b,https://www.healthpoint.co.nz/pharmacy/pharmacy/wises-pharmacy/,pharmacy,True
-37.1397907,175.53952400000003,Goldfields Pharmacy & Photo Centre,im:17a92369-6f5a-4ab1-ae8c-cb57ffa1a9eb,https://www.healthpoint.co.nz/pharmacy/pharmacy/goldfields-pharmacy-photo-centre/,pharmacy,True
-39.03411619290385,177.41838455200195,Wairoa Pharmacy,im:e295c304-0d0e-4800-a740-9c515ddcafe8,https://www.healthpoint.co.nz/pharmacy/pharmacy/wairoa-pharmacy/,pharmacy,True
-37.7990315,175.3164842,Hillcrest Healthcare Pharmacy,im:6796bdb4-c430-4aa1-9543-8d0dc9046f8d,https://www.healthpoint.co.nz/pharmacy/pharmacy/hillcrest-healthcare-pharmacy/,pharmacy,False
-37.5611934,175.15137989999994,Huntly West Pharmacy,im:00f55629-2b88-4461-aa34-d0c5f35c168a,https://www.healthpoint.co.nz/pharmacy/pharmacy/huntly-west-pharmacy/,pharmacy,True
-36.908797482930694,174.75537917672114,3 Kings Plaza Pharmacy,im:7f2a2284-f311-4a99-b991-880a20685461,https://www.healthpoint.co.nz/pharmacy/pharmacy/3-kings-plaza-pharmacy/,pharmacy,True
-37.7518131,175.2943904,Nga Hua Pharmacy,im:9cae270e-4308-4715-b0e7-1382267d8394,https://www.healthpoint.co.nz/pharmacy/pharmacy/nga-hua-pharmacy/,pharmacy,True
-37.6661066,175.1488789,Ngaruawahia Pharmacy,im:49b55773-2e67-4d97-9b5b-fc13d329d362,https://www.healthpoint.co.nz/pharmacy/pharmacy/ngaruawahia-pharmacy/,pharmacy,True
-36.8673613,174.7756918,Chemist Plus,im:3172a398-d1f5-432f-ba3f-9a4a2d33d44b,https://www.healthpoint.co.nz/pharmacy/pharmacy/chemist-plus/,pharmacy,True
-36.88579560000001,174.68359970000006,Avondale Kiwi Chemist,im:1f7cece9-0f0d-4594-a7b4-ede92be03f3d,https://www.healthpoint.co.nz/pharmacy/pharmacy/avondale-kiwi-chemist/,pharmacy,True
-41.2758256,174.77822179999998,Unichem Molesworth Pharmacy,im:275e5d91-baa8-4488-afc0-ab91f174d654,https://www.healthpoint.co.nz/pharmacy/pharmacy/unichem-molesworth-pharmacy/,pharmacy,True
-37.0225053,174.8967004,Southmall Pharmacy,im:24dfd2cf-be30-4ada-a212-84c9502fc65f,https://www.healthpoint.co.nz/pharmacy/pharmacy/southmall-pharmacy/,pharmacy,True
-37.8050951,175.28246260000003,Pharmacy on Meade,im:00137261-191f-4af7-84b4-1ff5896cb444,https://www.healthpoint.co.nz/pharmacy/pharmacy/pharmacy-on-meade/,pharmacy,True
-36.8862775,174.77579079999998,Epsom Kiwi Chemist,im:a3cdb94c-5f4d-4981-a4c8-cee7e9ad5430,https://www.healthpoint.co.nz/pharmacy/pharmacy/epsom-kiwi-chemist/,pharmacy,True
-37.8290587,175.3540047,Tamahere Pharmacy,im:f56fc655-0a77-4244-94c2-4a4ab41c7c34,https://www.healthpoint.co.nz/pharmacy/pharmacy/tamahere-pharmacy/,pharmacy,True
-37.5426356,175.7117399,Te Aroha Pharmacy,im:64c17f52-2ca8-4fed-94e4-389d7da5d685,https://www.healthpoint.co.nz/pharmacy/pharmacy/te-aroha-pharmacy/,pharmacy,True
-37.2008535,174.90021060000004,Unichem Pukekohe Pharmacy,im:b24b577f-3081-4c2f-9b2a-a2953de160df,https://www.healthpoint.co.nz/pharmacy/pharmacy/unichem-pukekohe-pharmacy/,pharmacy,True
-37.0636675,174.94278540000005,Urban Pharmacy Papakura,im:4309ba76-d935-4509-85d9-a87da0cf2074,https://www.healthpoint.co.nz/pharmacy/pharmacy/urban-pharmacy-papakura/,pharmacy,True
-36.8525864,174.78611039999998,Gladstone Pharmacy (Parnell),im:fdbfdb62-03c0-45e3-a3bf-853721418449,https://www.healthpoint.co.nz/pharmacy/pharmacy/gladstone-pharmacy-parnell/,pharmacy,True
-36.243011,175.46353190000002,Great Barrier Island Pharmacy,im:0aafde85-0b88-4ee1-8f91-2f384129251a,https://www.healthpoint.co.nz/pharmacy/pharmacy/great-barrier-island-pharmacy/,pharmacy,True
-36.8960964,174.83244719999993,Harris Road Pharmacy,im:cb819612-ba9a-4937-a7e6-d0b6f2fcd1a9,https://www.healthpoint.co.nz/pharmacy/pharmacy/harris-road-pharmacy/,pharmacy,True
-37.7701025,175.2635713,Unichem Beerescourt Pharmacy,im:c2fef4fd-7275-4f23-8637-397157e173ee,https://www.healthpoint.co.nz/pharmacy/pharmacy/unichem-beerescourt-pharmacy/,pharmacy,True
-36.7594039,175.49770950000004,Unichem Coromandel Pharmacy,im:424e7cfb-3a3b-4f05-95e5-4c75977a8717,https://www.healthpoint.co.nz/pharmacy/pharmacy/unichem-coromandel-pharmacy/,pharmacy,True
-36.8507998,174.7606103,Hobson Street Pharmacy,im:226cf276-2525-4fb8-908b-14df002087be,https://www.healthpoint.co.nz/pharmacy/pharmacy/hobson-street-pharmacy/,pharmacy,True
-36.8578648,174.76025140000002,Lambs Pharmacy & Natural Therapies Centre,im:d9465953-d207-444d-8980-089dc775c63e,https://www.healthpoint.co.nz/pharmacy/pharmacy/lambs-pharmacy-natural-therapies-centre/,pharmacy,True
-36.8803576,174.79647249999994,Life Pharmacy Remuera,im:ed7b4f25-8762-4229-844f-4ccff6de0094,https://www.healthpoint.co.nz/pharmacy/pharmacy/life-pharmacy-remuera/,pharmacy,True
-37.5578747,175.15855269999997,Unichem Huntly Pharmacy (formerly Pharmacy on Main Ltd),im:850c783b-7413-456c-8ff6-0592e8425198,https://www.healthpoint.co.nz/pharmacy/pharmacy/unichem-huntly-pharmacy-formerly-pharmacy/,pharmacy,True
-36.88385330000001,174.71560650000004,Mt Albert Village Pharmacy,im:a8283cd7-f39f-4570-95d2-11c9381708ba,https://www.healthpoint.co.nz/pharmacy/pharmacy/mt-albert-village-pharmacy/,pharmacy,True
-46.42818259999999,168.361805,Baillie and Lewis Pharmacy,im:e0e1f125-0866-4cff-a194-bcceefab2efe,https://www.healthpoint.co.nz/pharmacy/pharmacy/baillie-and-lewis-pharmacy/,pharmacy,True
-38.1867455,175.21131119999995,Unichem Otorohanga Pharmacy,im:a76f83e9-fde1-46df-899f-3b601a9f838b,https://www.healthpoint.co.nz/pharmacy/pharmacy/unichem-otorohanga-pharmacy/,pharmacy,True
-46.5990178,168.3420142,Bluff Prescription Centre,im:4bae3fc6-94df-49fa-8690-cf4c176a341a,https://www.healthpoint.co.nz/pharmacy/prescription-collection-depot/bluff-prescription-centre/,pharmacy,False
-37.7808801,175.2362428,West Hamilton Pharmacy,im:2c8b5a94-a14a-41da-baf8-5c48416748c0,https://www.healthpoint.co.nz/pharmacy/pharmacy/west-hamilton-pharmacy/,pharmacy,True
-37.7963644,175.24700359999997,Westend Pharmacy,im:bd5c8f7b-e255-4e4a-94de-7f32f16f7a3e,https://www.healthpoint.co.nz/pharmacy/pharmacy/westend-pharmacy/,pharmacy,True
-38.1308092,176.30012540000007,Owhata Medical Centre Pharmacy,im:8365615d-df9d-44ee-a0f4-45c59545db69,https://www.healthpoint.co.nz/pharmacy/pharmacy/owhata-medical-centre-pharmacy/,pharmacy,True
-46.40237920000001,168.38512409999998,Glengarry Pharmacy,im:dd495327-2d23-4c2b-9e0f-b4bdf0ce6b62,https://www.healthpoint.co.nz/pharmacy/pharmacy/glengarry-pharmacy/,pharmacy,True
-46.39593,168.36537910000004,Life Pharmacy Donna Kerr,im:e2757c76-8494-4eee-92c7-ab9aaf6ee65c,https://www.healthpoint.co.nz/pharmacy/pharmacy/life-pharmacy-donna-kerr/,pharmacy,True
-46.0999501,168.94563879999998,Life Pharmacy La Hood's,im:df8756ea-98ed-46e9-85d0-ff0b3c3cb875,https://www.healthpoint.co.nz/pharmacy/pharmacy/life-pharmacy-la-hoods/,pharmacy,True
-38.9910452,175.80918039252592,Unichem T큰rangi Pharmacy,im:e9c17576-7c19-4849-9754-5de7da4017a5,https://www.healthpoint.co.nz/pharmacy/pharmacy/unichem-turangi-pharmacy/,pharmacy,True
-46.3517829,168.0137522,Riverton Pharmacy,im:b03526ed-c649-44f8-b186-024f8b2578aa,https://www.healthpoint.co.nz/pharmacy/pharmacy/riverton-pharmacy/,pharmacy,True
-38.1285517,176.2191023,Western Heights Pharmacy,im:9ede57db-8af8-40c2-b534-ad691ab78aa4,https://www.healthpoint.co.nz/pharmacy/pharmacy/western-heights-pharmacy/,pharmacy,True
-38.3571236,177.5341021,"Bramwell's Pharmacy Collection Depot, 6530 Matawai Road, Matawai",im:95f73c2c-5aa5-45fd-8084-37d421541303,https://www.healthpoint.co.nz/pharmacy/prescription-collection-depot/bramwells-pharmacy-collection-depot-6530/,pharmacy,False
-38.4695384,177.86366599999997,"Bramwell's Pharmacy Collection Depot - 59 Cliff Road, Te Karaka",im:651a7bb1-54ec-411b-a0db-4a271d9d595c,https://www.healthpoint.co.nz/pharmacy/prescription-collection-depot/bramwells-pharmacy-collection-depot-59-cliff/,pharmacy,False
-36.884815,174.71504319999997,New North Pharmacy,im:12606741-6b76-4bef-85f1-36a6b3653013,https://www.healthpoint.co.nz/pharmacy/pharmacy/new-north-pharmacy/,pharmacy,True
-36.9234708,174.78566980000005,Onehunga Family Pharmacy,im:71f6a6ab-3572-44bf-96cc-64f2f4cbc26e,https://www.healthpoint.co.nz/pharmacy/pharmacy/onehunga-family-pharmacy/,pharmacy,True
-40.2093114,176.09717980000005,Dannevirke Pharmacy,im:4809a991-ff8a-452b-b910-fb3ce398f1e7,https://www.healthpoint.co.nz/pharmacy/pharmacy/dannevirke-pharmacy/,pharmacy,True
-40.2165855,175.56990700000006,Feilding Health Pharmacy,im:96404284-1a49-4d27-9f67-588e5d8b86a0,https://www.healthpoint.co.nz/pharmacy/pharmacy/feilding-health-pharmacy/,pharmacy,True
-40.35693450000001,175.61323749999997,Life Pharmacy The Plaza,im:9cd467db-f4dd-4007-9be4-bf8fa9c385ad,https://www.healthpoint.co.nz/pharmacy/pharmacy/life-pharmacy-the-plaza/,pharmacy,True
-40.4528875,175.84155350000003,Pahiatua Pharmacy,im:96eb7432-7d93-4032-a650-842f6b965a1a,https://www.healthpoint.co.nz/pharmacy/pharmacy/pahiatua-pharmacy/,pharmacy,True
-41.2740708,173.28230180000003,Hardy St Pharmacy,im:152b38aa-0e8e-4d2a-a4db-8799dc5cace8,https://www.healthpoint.co.nz/pharmacy/pharmacy/hardy-st-pharmacy/,pharmacy,False
-36.9009216,174.85680909999996,Prohealth Panmure Pharmacy (previously known as Health Star Pharmacy Ltd),im:0c2aa522-636e-41ab-bf84-50b193f57e5c,https://www.healthpoint.co.nz/pharmacy/pharmacy/prohealth-panmure-pharmacy-previously-known/,pharmacy,True
-41.3120108,173.2337693,John's Stoke Pharmacy,im:58af5c28-08b6-4638-90ac-1e110a451516,https://www.healthpoint.co.nz/pharmacy/pharmacy/johns-stoke-pharmacy/,pharmacy,False
-35.2283886,173.94781910000006,Unichem Kerikeri Pharmacy,im:b1c5c4c8-96d3-4c9b-a26f-2d6f3fda9700,https://www.healthpoint.co.nz/pharmacy/pharmacy/unichem-kerikeri-pharmacy/,pharmacy,True
-36.811097869951475,174.60627945258852,Costco Pharmacy Westgate,im:e5ca7a45-6a9f-4513-b8b7-b408707a812c,https://www.healthpoint.co.nz/pharmacy/pharmacy/costco-pharmacy-westgate/,pharmacy,True
-41.33987469999999,173.18501709999998,Queen Street Pharmacy,im:054b4c54-ab23-44b8-9b0f-886852b9a0ae,https://www.healthpoint.co.nz/pharmacy/pharmacy/queen-street-pharmacy/,pharmacy,True
-41.50778029999999,173.826372,Renwick Healthcare Depot,im:0aa99bdf-c010-486e-b33b-9df34f4fae48,https://www.healthpoint.co.nz/pharmacy/prescription-collection-depot/renwick-healthcare-depot/,pharmacy,False
-36.6770257,174.45036800000003,Unichem Helensville Pharmacy,im:f0788c54-4746-4522-ade5-2828bfc56858,https://www.healthpoint.co.nz/pharmacy/pharmacy/unichem-helensville-pharmacy/,pharmacy,True
-36.8297726,174.7961873,Devonport 7 Day Pharmacy,im:3d482365-87e9-4842-aee1-8d44d0d0c39f,https://www.healthpoint.co.nz/pharmacy/pharmacy/devonport-7-day-pharmacy/,pharmacy,True
-36.7974685,174.64744959999996,"124 Hobsonville Road, Hobsonville, Auckland",im:4ece7e0f-f731-4e4e-a5af-5ef91235d763,https://www.healthpoint.co.nz/124-hobsonville-road-hobsonville-auckland/,pharmacy,True
-36.881885,174.76196400000003,Mt Eden Pharmacy,im:fdf4b0e0-ca28-4121-845c-acd5538c446c,https://www.healthpoint.co.nz/pharmacy/pharmacy/mt-eden-pharmacy/,pharmacy,True
-36.9078599,174.6852085,"Lynnmall Shopping Centre, 3058 Great North Road, New Lynn, Auckland",im:2ae5391d-ae70-4d98-acd8-af6f33379959,https://www.healthpoint.co.nz/lynnmall-shopping-centre-3058-great-north/,pharmacy,False
-36.9049016,174.74144890000002,Roskill Healthcare Pharmacy,im:c4cccb6f-e5bd-4e5f-a4b4-d779a1e8d79a,https://www.healthpoint.co.nz/pharmacy/pharmacy/roskill-healthcare-pharmacy/,pharmacy,True
-36.7720008,174.7661176,"Milford Shopping Centre, 24 Milford Road, Milford, Auckland",im:945ff9a7-a6d4-4a98-ba62-074a5ae71dec,https://www.healthpoint.co.nz/milford-shopping-centre-24-milford-road-milford/,pharmacy,True
-36.7727184,174.7658619,Milford Nutritional Pharmacy,im:ad2079fc-7eec-49e8-b017-437b79be7f06,https://www.healthpoint.co.nz/pharmacy/pharmacy/milford-nutritional-pharmacy/,pharmacy,True
-41.7545327,171.59845270000005,Buller Pharmacy,im:39112af8-020c-4385-a9ce-818fe7cbe259,https://www.healthpoint.co.nz/pharmacy/pharmacy/buller-pharmacy/,pharmacy,True
-36.784107938385745,174.7535079717636,Shorecare Pharmacy,im:1d4645d3-b035-4093-9ba1-41a7f8ee44fc,https://www.healthpoint.co.nz/pharmacy/pharmacy/shorecare-pharmacy/,pharmacy,True
-39.9392189,175.03386550000005,Gonville Pharmacy,im:2a7fdca9-1976-49d5-9a33-8c06bbb1d608,https://www.healthpoint.co.nz/pharmacy/pharmacy/gonville-pharmacy/,pharmacy,True
-36.4236767,174.7266747,Snells Beach Pharmacy,im:7a174d60-b436-4cad-9f13-107c72b16bed,https://www.healthpoint.co.nz/pharmacy/pharmacy/snells-beach-pharmacy/,pharmacy,True
-40.0686732,175.37844280000002,Marton Pharmacy,im:7c7e332d-d023-4701-b069-9591f18f059e,https://www.healthpoint.co.nz/pharmacy/pharmacy/marton-pharmacy/,pharmacy,True
-36.7294937,174.70401909999998,Unichem Albany Mega Centre Pharmacy,im:51c20c32-b8ee-4bac-b5c8-4e073ce653d2,https://www.healthpoint.co.nz/pharmacy/pharmacy/unichem-albany-mega-centre-pharmacy/,pharmacy,True
-39.918921,175.0382826,St Johns Pharmacy,im:0ae21584-cda7-4420-97a8-06b053f64914,https://www.healthpoint.co.nz/pharmacy/pharmacy/st-johns-pharmacy/,pharmacy,False
-39.6775086,175.798456,Taihape Pharmacy,im:53b961e3-638e-4ec2-ac93-6357ffbe75f4,https://www.healthpoint.co.nz/pharmacy/pharmacy/taihape-pharmacy/,pharmacy,True
-36.7757676,174.6702335,Unichem Greenhithe Pharmacy,im:4481dc77-78cf-4971-851a-8404d5c605bd,https://www.healthpoint.co.nz/pharmacy/pharmacy/unichem-greenhithe-pharmacy/,pharmacy,True
-36.6854106,174.73800570000003,Unichem Long Bay Pharmacy,im:f4f65752-7967-42f0-b4d5-74d33b6c67f7,https://www.healthpoint.co.nz/pharmacy/pharmacy/unichem-long-bay-pharmacy/,pharmacy,True
-36.63142500000001,174.76342499999998,Unichem Manly Pharmacy,im:65e990d0-0ef0-453f-b6f6-f2c882c248c5,https://www.healthpoint.co.nz/pharmacy/pharmacy/unichem-manly-pharmacy/,pharmacy,True
-36.42438599999999,174.7276455,Unichem Snells Beach Pharmacy,im:0aa53d18-2fde-4637-af92-27ffa5d82907,https://www.healthpoint.co.nz/pharmacy/pharmacy/unichem-snells-beach-pharmacy/,pharmacy,True
-35.282111,174.09110050000004,Paihia Pharmacy,im:990d8087-62a5-48c5-8711-6356d25e326a,https://www.healthpoint.co.nz/pharmacy/pharmacy/paihia-pharmacy/,pharmacy,True
-36.8867854,174.84482830000002,Stonefields Pharmacy,im:5b7dcd32-668b-4832-9635-81e117265f14,https://www.healthpoint.co.nz/pharmacy/pharmacy/stonefields-pharmacy/,pharmacy,False
-36.7587156,174.74128500000006,Unichem Sunnynook Pharmacy,im:959003ed-1d86-4684-889d-9d2983d6096e,https://www.healthpoint.co.nz/pharmacy/pharmacy/unichem-sunnynook-pharmacy/,pharmacy,True
-41.0264073,175.5258202,Carterton Pharmacy,im:96fa430a-abfb-4f70-b98b-4d0ffadc99d3,https://www.healthpoint.co.nz/pharmacy/pharmacy/carterton-pharmacy/,pharmacy,True
-36.88316220000001,174.74846350000007,Pharmville on St Albans Pharmacy,im:f8fa3ad1-8f59-4c06-ae3a-74e956b92386,https://www.healthpoint.co.nz/pharmacy/pharmacy/pharmville-on-st-albans-pharmacy/,pharmacy,False
-40.9584899,175.6482752,Duncan's Pharmacy,im:6c765e78-e8d1-443a-9a2a-b9b884251011,https://www.healthpoint.co.nz/pharmacy/pharmacy/duncans-pharmacy/,pharmacy,True
-39.9950381,176.55262670000002,Unichem Waipukurau Pharmacy,im:14e7b94b-a573-4c65-b9b4-bdc6e824f9b7,https://www.healthpoint.co.nz/pharmacy/pharmacy/unichem-waipukurau-pharmacy/,pharmacy,True
-41.116791,175.32387749999998,Langs Pharmacy,im:4077ae11-5a0e-4ce4-89e0-c5b8cc4058cb,https://www.healthpoint.co.nz/pharmacy/pharmacy/langs-pharmacy/,pharmacy,True
-41.2915274,174.77357670000004,Alexander Pharmacy,im:90e02216-d3e9-45c1-bdaa-1551fac8b886,https://www.healthpoint.co.nz/pharmacy/pharmacy/alexander-pharmacy/,pharmacy,True
-44.9385493,168.83126790000006,Arrowtown Pharmacy,im:0f9a98fa-c464-404e-97ce-2df5a71a5adf,https://www.healthpoint.co.nz/pharmacy/pharmacy/arrowtown-pharmacy/,pharmacy,True
-41.3121916,174.7795881,Castle Chemists,im:f0666dee-69a5-4ae4-947f-e67bbff28b88,https://www.healthpoint.co.nz/pharmacy/pharmacy/castle-chemists/,pharmacy,True
-45.02657869999999,168.74221349999993,Unichem Remarkables Pharmacy,im:9caab080-1797-4ae5-8608-db9ebad00de9,https://www.healthpoint.co.nz/pharmacy/pharmacy/unichem-remarkables-pharmacy/,pharmacy,True
-41.19848959999999,174.9476704,Naenae Pharmacy Ltd,im:26e9329f-7615-4c34-8ff4-f6e0f1d19ef3,https://www.healthpoint.co.nz/pharmacy/pharmacy/naenae-pharmacy-ltd/,pharmacy,True
-40.895528,175.009317,Mazengarb Pharmacy,im:9dd32d07-65d0-45ec-ad69-64f197b7a31a,https://www.healthpoint.co.nz/pharmacy/pharmacy/mazengarb-pharmacy/,pharmacy,True
-45.0160276,168.73101380000003,Unichem Summerfields Pharmacy,im:04f40cef-ea83-47ba-bed7-855ad21259a5,https://www.healthpoint.co.nz/pharmacy/pharmacy/unichem-summerfields-pharmacy/,pharmacy,True
-38.1355099,176.24836789999995,Unichem Central Pharmacy Rotorua,im:19c83e46-0be2-4bc3-8300-a487ef28b628,https://www.healthpoint.co.nz/pharmacy/pharmacy/unichem-central-pharmacy-rotorua/,pharmacy,True
-40.9191468,174.98178329999996,Raumati Road Pharmacy Ltd,im:b4bd7738-7af7-4b58-bcf4-10e34ac58096,https://www.healthpoint.co.nz/pharmacy/pharmacy/raumati-road-pharmacy-ltd/,pharmacy,True
-41.2037162,174.91669520000005,Ropata Pharmacy,im:902547d0-fa7e-432c-938c-e0df0d5db18f,https://www.healthpoint.co.nz/pharmacy/pharmacy/ropata-pharmacy/,pharmacy,True
-44.69620630000001,169.1357412,Wanaka Pharmacy,im:4d7f3908-01b9-48d1-88cf-cf22395be62d,https://www.healthpoint.co.nz/pharmacy/pharmacy/wanaka-pharmacy/,pharmacy,True
-41.21067300000001,174.9002448,Unichem High Street Pharmacy,im:7588f9de-f9f8-4325-ba33-60e20f4c53a3,https://www.healthpoint.co.nz/pharmacy/pharmacy/unichem-high-street-pharmacy/,pharmacy,True
-41.30539379999999,174.76379799999995,Unichem Brooklyn Pharmacy,im:7a865e74-9b4a-4bda-b695-944518d61487,https://www.healthpoint.co.nz/pharmacy/pharmacy/unichem-brooklyn-pharmacy/,pharmacy,True
-41.124592,175.0680507,Unichem Maidstone Pharmacy,im:d8616649-473b-4118-8d63-df33c057a6b5,https://www.healthpoint.co.nz/pharmacy/pharmacy/unichem-maidstone-pharmacy/,pharmacy,True
-41.17385959999999,174.9819066,Unichem Stokes Valley Pharmacy,im:24552c07-70e8-45c6-9efe-95ff9272ca3e,https://www.healthpoint.co.nz/pharmacy/pharmacy/unichem-stokes-valley-pharmacy/,pharmacy,True
-41.1254813,175.058222,Unichem Upper Hutt Pharmacy,im:f71d0773-20e8-4972-84c9-11895b47d582,https://www.healthpoint.co.nz/pharmacy/pharmacy/unichem-upper-hutt-pharmacy/,pharmacy,False
-41.25979419999999,174.94213309999998,Wainuiomata Pharmacy & Lotto,im:ac60c9be-7a11-41aa-aa36-e074a6b955df,https://www.healthpoint.co.nz/pharmacy/pharmacy/wainuiomata-pharmacy-lotto/,pharmacy,True
-37.0374844,174.88871629999994,Mahia Road Pharmacy,im:69a8e5c8-0697-4e90-9a1f-0ac570504793,https://www.healthpoint.co.nz/pharmacy/pharmacy/mahia-road-pharmacy/,pharmacy,True
-45.8573735,170.47819819999995,Balmac Pharmacy,im:5dc5f6ea-439b-46b2-a7d6-65bf9ad72ed2,https://www.healthpoint.co.nz/pharmacy/pharmacy/balmac-pharmacy/,pharmacy,True
-39.6374993,176.8443675,The Pharmacy @ The Hastings Health Centre,im:9110220f-36d4-4145-aaa6-ff37998337d4,https://www.healthpoint.co.nz/pharmacy/pharmacy/the-pharmacy-the-hastings-health-centre/,pharmacy,True
-40.8767585,175.06411809999997,Westbury Pharmacy,im:e006954f-300a-408a-91bd-bb4677a3a908,https://www.healthpoint.co.nz/pharmacy/pharmacy/westbury-pharmacy/,pharmacy,True
-36.9135767,174.92872020000004,Unichem Meadowlands Pharmacy,im:447e4d37-0ba7-4802-8e32-3a8eab390f14,https://www.healthpoint.co.nz/pharmacy/pharmacy/unichem-meadowlands-pharmacy/,pharmacy,True
-36.9124167,174.72795789999998,White Swan Pharmacy,im:f9e06a98-3fd6-4789-b0f6-4e024f8daccb,https://www.healthpoint.co.nz/pharmacy/pharmacy/white-swan-pharmacy/,pharmacy,True
-45.9017388,170.4295366,Green Island Boutique Pharmacy,im:3de6fb0b-721f-43cc-b2b5-85515db3b4c5,https://www.healthpoint.co.nz/pharmacy/pharmacy/green-island-boutique-pharmacy/,pharmacy,True
-36.8809843,174.89905199999998,Unichem Marina Pharmacy,im:d6304a67-4ad5-4ee0-bd83-6cf0005b63dd,https://www.healthpoint.co.nz/pharmacy/pharmacy/unichem-marina-pharmacy/,pharmacy,True
-45.9432059,169.2614994,La Hood's Tapanui Depot,im:c0c94581-8d74-4713-a631-4b10b3555014,https://www.healthpoint.co.nz/pharmacy/prescription-collection-depot/la-hoods-tapanui-depot/,pharmacy,False
-36.90245770000001,174.92564259999995,Unichem John Savory Pharmacy,im:2566b31b-6b0f-44bd-8c51-c20f01665d38,https://www.healthpoint.co.nz/pharmacy/pharmacy/unichem-john-savory-pharmacy/,pharmacy,True
-36.92474869999999,174.91280400000005,Botany Road Pharmacy,im:f3cb1370-ece9-4262-a085-7a7aac7fa569,https://www.healthpoint.co.nz/pharmacy/pharmacy/botany-road-pharmacy/,pharmacy,True
-45.8750481,170.34796759999995,Unichem Central Pharmacy Mosgiel,im:071ae1c6-9d47-41c3-b8af-58f1580123cb,https://www.healthpoint.co.nz/pharmacy/pharmacy/unichem-central-pharmacy-mosgiel/,pharmacy,True
-45.87395350589714,170.34811187003697,Unichem Taieri Pharmacy,im:37b5b1b8-0f79-4d08-90aa-a6ec6a6a6726,https://www.healthpoint.co.nz/pharmacy/pharmacy/unichem-taieri-pharmacy/,pharmacy,True
-46.2382075,169.7381944,Unichem Grays Pharmacy,im:a50c4de5-02b5-4dbd-b3e2-8e2833cd6e07,https://www.healthpoint.co.nz/pharmacy/pharmacy/unichem-grays-pharmacy/,pharmacy,True
-37.7280481,176.1357911,Unichem Chadwick Pharmacy,im:0c72d463-8efa-4d71-a60f-e51cb03f85ff,https://www.healthpoint.co.nz/pharmacy/pharmacy/unichem-chadwick-pharmacy/,pharmacy,True
-41.517338,173.95766300000003,John Poswillo Pharmacy Ltd,im:ff279f8f-58f6-4abe-a51c-4910f1d22f09,https://www.healthpoint.co.nz/pharmacy/pharmacy/john-poswillo-pharmacy-ltd/,pharmacy,True
-41.25305719999999,173.09564890000001,M훮pua Pharmacy,im:9e1f6849-c85f-42d3-aab4-80bf6a2b9e07,https://www.healthpoint.co.nz/pharmacy/pharmacy/mapua-pharmacy/,pharmacy,True
-42.71741129999999,170.96234479999998,Westland Pharmacy,im:cc143989-54a4-4783-acc8-a0a7e21ee919,https://www.healthpoint.co.nz/pharmacy/pharmacy/westland-pharmacy/,pharmacy,True
-36.8705495,174.7104319,Unichem Point Chevalier Pharmacy,im:9924e44a-aa34-4cae-aed2-18e5312932cb,https://www.healthpoint.co.nz/pharmacy/pharmacy/unichem-point-chevalier-pharmacy/,pharmacy,True
-41.3402183,173.18608599999993,Unichem Richmond Mall Pharmacy,im:2459a161-489b-4b33-9d24-a5876e54b82b,https://www.healthpoint.co.nz/pharmacy/pharmacy/unichem-richmond-mall-pharmacy/,pharmacy,True
-36.628338,174.731454,Unichem Stanmore Bay,im:573b4b15-d765-4bab-862f-46c2a1c0eb18,https://www.healthpoint.co.nz/pharmacy/pharmacy/unichem-stanmore-bay/,pharmacy,True
-36.8636713,174.73683389999997,Unichem Surrey Pharmacy,im:8214edd8-73e9-4166-8f15-3617948ee409,https://www.healthpoint.co.nz/pharmacy/pharmacy/unichem-surrey-pharmacy/,pharmacy,True
-36.86547609999999,174.73727610000003,Unichem Grey Lynn Pharmacy,im:a503853a-b770-4ab4-88f5-a4a19561228f,https://www.healthpoint.co.nz/pharmacy/pharmacy/unichem-grey-lynn-pharmacy/,pharmacy,True
-39.5863523,174.2668625,Robertsons Hunter Street Pharmacy,im:1444fb7e-a703-4836-80d1-9d81411d15af,https://www.healthpoint.co.nz/pharmacy/pharmacy/robertsons-hunter-street-pharmacy/,pharmacy,True
-43.5560969,172.63659719999998,Christchurch South Pharmacy (Hardings Pharmacy),im:287eba65-3998-42aa-ae8a-ec6c11a84d85,https://www.healthpoint.co.nz/pharmacy/pharmacy/christchurch-south-pharmacy-hardings-pharmacy/,pharmacy,True
-38.6499368,178.02067809999994,Gordon's Pharmacy,im:2fb75b02-9566-42da-854b-3829e41e904b,https://www.healthpoint.co.nz/pharmacy/pharmacy/gordons-pharmacy/,pharmacy,True
-36.11037045723121,174.35408413410187,Unichem Orrs Pharmacy Maungaturoto,im:2bad2505-bced-4fce-bbe5-c8bf3cdf6570,https://www.healthpoint.co.nz/pharmacy/pharmacy/unichem-orrs-pharmacy-maungaturoto/,pharmacy,True
-39.5265849,176.861155,Greenmeadows Pharmacy,im:76fc91d2-039d-4323-a387-fdd7889e3404,https://www.healthpoint.co.nz/pharmacy/pharmacy/greenmeadows-pharmacy/,pharmacy,True
-43.5237542,172.58274200000005,University Pharmacy Canterbury,im:7cb7d721-5a25-4359-bd31-301289a1004a,https://www.healthpoint.co.nz/pharmacy/pharmacy/university-pharmacy-canterbury/,pharmacy,True
-36.94132569999999,174.84047839999994,MaxCare Pharmacy Ltd,im:f3dd5f43-1698-4fe8-bf7a-a77625679d19,https://www.healthpoint.co.nz/pharmacy/pharmacy/maxcare-pharmacy-ltd/,pharmacy,True
-39.6390335,176.8256407,Raureka Pharmacy,im:813e348a-b931-42ad-920a-ca8ac95e493b,https://www.healthpoint.co.nz/pharmacy/pharmacy/raureka-pharmacy/,pharmacy,False
-39.5083352,176.8871347,Andrew Spence Pharmacy,im:1de7d133-f5c4-4131-8f35-7ab89fc44654,https://www.healthpoint.co.nz/pharmacy/pharmacy/andrew-spence-pharmacy/,pharmacy,True
-39.5000446,176.9034573,Marewa Pharmacy,im:b4b43e24-f151-4acb-afb2-0022b5e21e1c,https://www.healthpoint.co.nz/pharmacy/pharmacy/marewa-pharmacy/,pharmacy,True
-38.37314440000001,178.29706399999998,Tolaga Bay Collection Depot - Gordon's Pharmacy,im:02224716-cb41-4190-8266-3fc6817c23a9,https://www.healthpoint.co.nz/pharmacy/prescription-collection-depot/tolaga-bay-collection-depot-gordons-pharmacy/,pharmacy,False
-37.59189789999999,178.2914553,Hicks Bay Collection Depot - Gordon's Pharmacy,im:734e4cdf-8ea6-4b6f-93d9-292336527d92,https://www.healthpoint.co.nz/pharmacy/prescription-collection-depot/hicks-bay-collection-depot-gordons-pharmacy/,pharmacy,False
-38.1303443,178.3149956,Tokomaru Bay Collection Depot - Gordon's Pharmacy,im:12803aee-e60f-4b10-b1b6-2e45f171f892,https://www.healthpoint.co.nz/pharmacy/prescription-collection-depot/tokomaru-bay-collection-depot-gordons-pharmacy/,pharmacy,False
-36.8995031,174.80347299999994,One Tree Hill Pharmacy,im:160fcd09-f98c-4d18-88fa-98b140b1bda9,https://www.healthpoint.co.nz/pharmacy/pharmacy/one-tree-hill-pharmacy/,pharmacy,True
-38.05563299999999,178.30494539999995,Te Puia Collection Depot - Gordon's Pharmacy,im:8b4958bf-25d7-4fa2-8fec-d4833edfda58,https://www.healthpoint.co.nz/pharmacy/prescription-collection-depot/te-puia-collection-depot-gordons-pharmacy/,pharmacy,False
-37.63325099999999,178.3690102,Te Araroa Collection Depot - Gordon's Pharmacy,im:993cd1da-a0aa-46c6-942e-f79d0e5f758f,https://www.healthpoint.co.nz/pharmacy/prescription-collection-depot/te-araroa-collection-depot-gordons-pharmacy/,pharmacy,False
-36.813286,174.79231589999995,Helen Scott Pharmacy,im:75be3d5c-0cf9-4ea9-a2dc-662f17b2de95,https://www.healthpoint.co.nz/pharmacy/pharmacy/helen-scott-pharmacy/,pharmacy,True
-37.5575605,175.15846220000003,Barry Robert's Pharmacy,im:15b35a34-2dbe-48fd-a909-a3236af090e2,https://www.healthpoint.co.nz/pharmacy/pharmacy/barry-roberts-pharmacy/,pharmacy,False
-38.1811276,175.21049119999998,Otorohanga Express Pharmacy,im:d47c1fbe-3bda-4c30-9d51-fc01e35b7a88,https://www.healthpoint.co.nz/pharmacy/pharmacy/otorohanga-express-pharmacy/,pharmacy,False
-44.40849060000001,171.25635950000003,Timaru Hospital Inpatient Pharmacy l South Canterbury l Te Whatu Ora ,im:7b7697bb-c701-49e7-b255-8d74748edd19,https://www.healthpoint.co.nz/pharmacy/hospital-pharmacy/timaru-hospital-inpatient-pharmacy-l-south/,pharmacy,False
-41.534668,173.94541700000002,Wairau Hospital Inpatient Pharmacy | Nelson Marlborough | Te Whatu Ora,im:c1cb9169-50f5-4594-9d2d-7dc33853c3c3,https://www.healthpoint.co.nz/pharmacy/hospital-pharmacy/wairau-hospital-inpatient-pharmacy-nelson/,pharmacy,False
-36.9795301,174.85248869999998,St George Pharmacy,im:1b0a3ac2-cd3b-4138-a511-a3b3ecc8b486,https://www.healthpoint.co.nz/pharmacy/pharmacy/st-george-pharmacy/,pharmacy,True
-36.9025975,174.7423675,SaveMart Pharmacy,im:81ee96f7-0d5c-417c-8027-98dc38410265,https://www.healthpoint.co.nz/pharmacy/pharmacy/savemart-pharmacy/,pharmacy,True
-36.7492265,174.72847090000005,Northcare 7 Day Pharmacy,im:56282e53-7e6d-4a47-9d27-5c7982faa82e,https://www.healthpoint.co.nz/pharmacy/pharmacy/northcare-7-day-pharmacy/,pharmacy,True
-36.8680645,174.77842609999993,MEDICINES TO MIDNIGHT,im:0a0d8b8a-1155-4c72-abd9-8efeadaf4507,https://www.healthpoint.co.nz/pharmacy/pharmacy/medicines-to-midnight/,pharmacy,True
-38.3339748,175.16491989999997,Unichem Te Kuiti Pharmacy,im:40434ec6-c719-4477-8421-52983a9988f8,https://www.healthpoint.co.nz/pharmacy/pharmacy/unichem-te-kuiti-pharmacy/,pharmacy,True
-35.8391824,174.4664333,Marsden Cove Pharmacy,im:a43d5f13-f3ae-4148-8a80-874d01139fc8,https://www.healthpoint.co.nz/pharmacy/pharmacy/marsden-cove-pharmacy/,pharmacy,True
-45.88560220000001,170.52808519999996,Waverley Pharmacy,im:2d63e3cc-458f-4d14-af03-b72f35cba835,https://www.healthpoint.co.nz/pharmacy/pharmacy/waverley-pharmacy/,pharmacy,True
-36.8919603,174.92929049999998,Crawford House Pharmacy,im:6d56412a-55e1-4583-bb10-7b53613ee75f,https://www.healthpoint.co.nz/pharmacy/pharmacy/crawford-house-pharmacy/,pharmacy,True
-36.8942404,174.93157659999997,Life Pharmacy Howick Village,im:3678f15d-2083-4cd9-931b-418325335111,https://www.healthpoint.co.nz/pharmacy/pharmacy/life-pharmacy-howick-village/,pharmacy,True
-36.8936851,174.93084010000007,Unichem Main Street Pharmacy,im:5978f62b-6457-4f72-89c0-52af25b647ed,https://www.healthpoint.co.nz/pharmacy/pharmacy/unichem-main-street-pharmacy/,pharmacy,True
-36.766553,174.4945727,Waimauku Pharmacy - Silver Fern,im:9c972280-ca26-4d0f-b80e-fd5980fa85a2,https://www.healthpoint.co.nz/pharmacy/pharmacy/waimauku-pharmacy-silver-fern/,pharmacy,True
-36.76812039999999,174.49287800000002,Waimauku Pharmacy - Station Road,im:61030861-7b08-4c86-8e3c-17e9cccf5697,https://www.healthpoint.co.nz/pharmacy/pharmacy/waimauku-pharmacy-station-road/,pharmacy,True
-36.8533208,174.7789414,Net Pharmacy,im:399c32bb-718c-49c0-b18f-7bdf0a5af68e,https://www.healthpoint.co.nz/pharmacy/pharmacy/net-pharmacy/,pharmacy,True
-43.5309505,172.59281609999994,Remedy Pharmacy - Riccarton,im:68c36529-2b81-4527-9165-0aaf6fd86b14,https://www.healthpoint.co.nz/pharmacy/pharmacy/remedy-pharmacy-riccarton/,pharmacy,True
-36.8520937,174.75105310000004,Freemans Bay Pharmacy,im:8238e91e-10f9-4bc6-a1bd-240cc3666b49,https://www.healthpoint.co.nz/pharmacy/pharmacy/freemans-bay-pharmacy/,pharmacy,True
-43.5002639,172.6112826,Papanui Pharmacy,im:77d0bc31-5df6-4bea-bfea-4d55f81b9dcb,https://www.healthpoint.co.nz/pharmacy/pharmacy/papanui-pharmacy/,pharmacy,True
-41.2570354,174.76578900000004,Crofton Downs Pharmacy,im:2aa631d2-de57-4ffa-a522-458e18d13326,https://www.healthpoint.co.nz/pharmacy/pharmacy/crofton-downs-pharmacy/,pharmacy,True
-36.87587749999999,174.82816460000004,"Meadowbank Shopping Centre, 35-47 Saint Johns Road, Saint Johns, Auckland",im:6efb8c8c-40e9-4e39-9008-f047b97495a2,https://www.healthpoint.co.nz/meadowbank-shopping-centre-35-47-saint-johns/,pharmacy,False
-40.3315054,175.6313169,Vogel Street Pharmacy,im:1d83977d-4bc1-48b5-be57-a02cdb067fec,https://www.healthpoint.co.nz/pharmacy/pharmacy/vogel-street-pharmacy/,pharmacy,True
-36.811203,174.7257211,Bargain Chemist Birkenhead ,im:4bcc0aa4-afbf-4100-b126-cedd04ff538e,https://www.healthpoint.co.nz/pharmacy/pharmacy/bargain-chemist-birkenhead/,pharmacy,True
-36.9020045,174.69247819999998,Avondale Pharmacy,im:a7324055-684e-47ce-9662-8d88249c22e8,https://www.healthpoint.co.nz/pharmacy/pharmacy/avondale-pharmacy/,pharmacy,True
-39.5873099,174.28044260000001,Mountainview Pharmacy,im:2bcb5310-a74a-4189-b190-79deca4e8fff,https://www.healthpoint.co.nz/pharmacy/pharmacy/mountainview-pharmacy/,pharmacy,True
-41.3346575,174.77359679999995,Unichem Island Bay Pharmacy,im:d603be77-4817-4223-9d27-4ba78119f0c7,https://www.healthpoint.co.nz/pharmacy/pharmacy/unichem-island-bay-pharmacy/,pharmacy,True
-38.6643364,178.02274310000007,Unichem Bramwells Pharmacy,im:99e830b0-345f-4b40-9fd1-03955c32b1c5,https://www.healthpoint.co.nz/pharmacy/pharmacy/unichem-bramwells-pharmacy/,pharmacy,True
-41.22375789999999,174.80761299999995,Unichem Johnsonville Pharmacy,im:ddc49f59-d216-4a78-9bde-1f2d4d6ac10f,https://www.healthpoint.co.nz/pharmacy/pharmacy/unichem-johnsonville-pharmacy/,pharmacy,True
-43.5401978,172.6054558,"Tower Junction Shopping Complex, Addington, Christchurch",im:93e43d0f-5deb-4b26-9412-6a781f01666b,https://www.healthpoint.co.nz/tower-junction-shopping-complex-addington/,pharmacy,True
-36.9725434,174.83410189999995,Graeme Avenue Pharmacy,im:40021410-fbc2-4b41-a66f-7927f2e17c39,https://www.healthpoint.co.nz/pharmacy/pharmacy/graeme-avenue-pharmacy/,pharmacy,True
-36.96290183127625,174.8401004076004,Haumanu Pharmacy,im:da6539c1-c41c-4985-a828-9535c8be0a94,https://www.healthpoint.co.nz/pharmacy/pharmacy/haumanu-pharmacy/,pharmacy,True
-35.7085691,174.3206953,Kensington Pharmacy Ltd,im:b52e60d8-7f42-40b9-ae85-10cf3bc69bdc,https://www.healthpoint.co.nz/pharmacy/pharmacy/kensington-pharmacy-ltd/,pharmacy,True
-40.94808769999999,175.67772509999998,Masterton Medical Pharmacy,im:81e5336c-3148-4f23-abf0-22b22eb442ae,https://www.healthpoint.co.nz/pharmacy/pharmacy/masterton-medical-pharmacy/,pharmacy,True
-40.9519464,175.65789259999997,Unichem Southend Pharmacy,im:d2b8e2db-90c5-4f35-9c02-a8df3ee5b2ab,https://www.healthpoint.co.nz/pharmacy/pharmacy/unichem-southend-pharmacy/,pharmacy,True
-43.56920559999999,172.75907949999998,Sumner Pharmacy,im:200ecd01-e74b-4125-b30d-edf523f89e17,https://www.healthpoint.co.nz/pharmacy/pharmacy/sumner-pharmacy/,pharmacy,True
-45.252134,169.38873549999994,Alexandra Pharmacy,im:d7c23c8f-9bfb-4827-aee6-5b94160c2436,https://www.healthpoint.co.nz/pharmacy/pharmacy/alexandra-pharmacy/,pharmacy,True
-45.8661204,170.5087744,Albany St Pharmacy,im:f6468647-60ca-4a55-a62b-d71dfd4a250b,https://www.healthpoint.co.nz/pharmacy/pharmacy/albany-st-pharmacy/,pharmacy,True
-37.77978799999999,175.24912930000005,Avalon Pharmacy Hamilton,im:079398c9-af07-45b4-bcc5-5a0bbf200b01,https://www.healthpoint.co.nz/pharmacy/pharmacy/avalon-pharmacy-hamilton/,pharmacy,True
-38.0854302,176.70193110000002,Kawerau Pharmacy,im:4be75495-ac6d-435a-9564-7b8399cb0ccf,https://www.healthpoint.co.nz/pharmacy/pharmacy/kawerau-pharmacy/,pharmacy,True
-37.79526579999999,175.24668129999998,Unichem Dinsdale Pharmacy,im:e4fcee9f-c089-4074-87a8-828a6f42fde8,https://www.healthpoint.co.nz/pharmacy/pharmacy/unichem-dinsdale-pharmacy/,pharmacy,True
-37.7650232,175.2600367,Vercoe Road Pharmacy,im:2652ec32-5fc9-48e2-a38f-1d8f2956e5c5,https://www.healthpoint.co.nz/pharmacy/pharmacy/vercoe-road-pharmacy/,pharmacy,True
-36.4114539,174.6549271,HealthHub Pharmacy,im:bd622003-be24-4479-8b92-e340827b80a9,https://www.healthpoint.co.nz/pharmacy/pharmacy/healthhub-pharmacy/,pharmacy,True
-36.6136183,174.68340509999996,Silverdale Clinic Pharmacy,im:48f4ebcc-d5e1-4b2d-af86-313f40daf4d7,https://www.healthpoint.co.nz/pharmacy/pharmacy/silverdale-clinic-pharmacy/,pharmacy,True
-46.4272605,168.3616579,Unichem Southcity Pharmacy,im:805f40c9-02ec-46aa-a8d4-6520479fdd26,https://www.healthpoint.co.nz/pharmacy/pharmacy/unichem-southcity-pharmacy/,pharmacy,True
-36.3976205,174.66426769999998,Harts Pharmacy,im:ff5eb75e-e2ca-43b3-8a75-2140ff7a9b17,https://www.healthpoint.co.nz/pharmacy/pharmacy/harts-pharmacy/,pharmacy,True
-36.9104783,174.77481910000006,Royal Oak Unichem Pharmacy (By Pak'n Save),im:b79d325e-656c-4408-8f8f-bb3b029bae11,https://www.healthpoint.co.nz/pharmacy/pharmacy/royal-oak-unichem-pharmacy-by-pakn-save/,pharmacy,True
-36.7281522,174.7079397,Life Pharmacy Albany,im:98182970-6ba0-4316-aff8-15839b79766e,https://www.healthpoint.co.nz/pharmacy/pharmacy/life-pharmacy-albany/,pharmacy,True
-36.8621229,174.8588211,Eastmed Pharmacy,im:6415f1a2-461b-456e-aac3-8fb6deea03e0,https://www.healthpoint.co.nz/pharmacy/pharmacy/eastmed-pharmacy/,pharmacy,True
-43.54103149999999,172.66010570000003,The Pharmacy @ Phillipstown,im:bf011620-690d-4c20-832c-09c61423d593,https://www.healthpoint.co.nz/pharmacy/pharmacy/the-pharmacy-phillipstown/,pharmacy,True
-36.9666943,174.90575590000003,Chapel Park Pharmacy,im:88c81a38-f943-49cb-983f-da147d7a4061,https://www.healthpoint.co.nz/pharmacy/pharmacy/chapel-park-pharmacy/,pharmacy,True
-46.10132460000001,168.9438404,Unichem Quins Gore Pharmacy,im:6c18123b-6ca3-4f30-812f-e36e4cb1c82b,https://www.healthpoint.co.nz/pharmacy/pharmacy/unichem-quins-gore-pharmacy/,pharmacy,True
-41.2019886,174.80827249999993,Village Pharmacy Churton Park,im:a9ef1131-eb75-4dd2-b24f-42f69b87aeb2,https://www.healthpoint.co.nz/pharmacy/pharmacy/village-pharmacy-churton-park/,pharmacy,True
-36.91531839999999,174.8728314,Unichem Pakuranga Pharmacy,im:49b12420-84a6-4d92-9b69-40835b34bd44,https://www.healthpoint.co.nz/pharmacy/pharmacy/unichem-pakuranga-pharmacy/,pharmacy,True
-37.7249761,176.3406067,My Pharmacy Whitiora Health Centre (formerly known as My Pharmacy at Palm Springs),im:28bbbe6d-fac5-4c49-89b4-c66e9175b666,https://www.healthpoint.co.nz/pharmacy/pharmacy/my-pharmacy-whitiora-health-centre-formerly/,pharmacy,True
-37.7005774,176.2837895,My Pharmacy P훮p훮moa Plaza,im:dae35943-7512-4ccc-a971-3c4f509a6dcf,https://www.healthpoint.co.nz/pharmacy/pharmacy/my-pharmacy-papamoa-plaza/,pharmacy,True
-37.7617899,175.28735889999996,Unichem Davies Corner Pharmacy,im:e46f0571-9df5-49e5-b608-da210334a263,https://www.healthpoint.co.nz/pharmacy/pharmacy/unichem-davies-corner-pharmacy/,pharmacy,True
-36.8850218,174.73570369999993,Alberton Pharmacy,im:841131c9-3c97-4745-a971-1dac2c824982,https://www.healthpoint.co.nz/pharmacy/pharmacy/alberton-pharmacy/,pharmacy,True
-41.2049105,174.92669039999998,Wellworks Pharmacy Boulcott,im:7708a44f-f626-4361-a02e-3128747f3d95,https://www.healthpoint.co.nz/pharmacy/pharmacy/wellworks-pharmacy-boulcott/,pharmacy,True
-39.051058,174.09764369999994,Robertsons Strandon Pharmacy,im:95ea5b32-818b-4ba5-96be-3518e97fec06,https://www.healthpoint.co.nz/pharmacy/pharmacy/robertsons-strandon-pharmacy/,pharmacy,True
-45.41600709999999,167.71481389999997,Fiordland Community Pharmacy,im:f9d6b980-a5d0-45ca-a56c-7f99122d76c5,https://www.healthpoint.co.nz/pharmacy/pharmacy/fiordland-community-pharmacy/,pharmacy,True
-40.34797460000001,175.6260089,Unichem Terrace End Pharmacy,im:10cc964e-4afd-457d-9780-8da620ff6cb2,https://www.healthpoint.co.nz/pharmacy/pharmacy/unichem-terrace-end-pharmacy/,pharmacy,True
-36.9087362,174.6836473,Health New Lynn 7 Day Pharmacy Ltd,im:6a7bd88c-0198-40f3-a7b8-dc73dcbe834c,https://www.healthpoint.co.nz/pharmacy/pharmacy/health-new-lynn-7-day-pharmacy-ltd/,pharmacy,True
-43.5019542,172.633446,Bastins Pharmacy,im:cc6901e0-6b9e-4d77-aa56-e6a7c0776957,https://www.healthpoint.co.nz/pharmacy/pharmacy/bastins-pharmacy/,pharmacy,True
-36.8884092,174.8317548,Unichem Lunn Ave Pharmacy,im:585af7fe-ee64-4a1f-8a58-f7045b6bb3bc,https://www.healthpoint.co.nz/pharmacy/pharmacy/unichem-lunn-ave-pharmacy/,pharmacy,True
-36.87907939999999,174.85504420000007,Unichem Cox's 7 Day Pharmacy,im:19bcb84d-96be-4c71-9854-0b916bfef2ef,https://www.healthpoint.co.nz/pharmacy/pharmacy/unichem-coxs-7-day-pharmacy/,pharmacy,True
-36.9888011,174.88540579999994,Bakerfield Chemist,im:366b332f-bb01-4915-a2c5-fc32ee2828b8,https://www.healthpoint.co.nz/pharmacy/pharmacy/bakerfield-chemist/,pharmacy,True
-36.8846257,174.74864730000002,Pharmacy on Dominion,im:9825d927-a0e9-4e3f-936f-7c5e4871d1af,https://www.healthpoint.co.nz/pharmacy/pharmacy/pharmacy-on-dominion/,pharmacy,True
-41.28777940000001,174.77545399999997,Unichem Willis St Pharmacy,im:5e027ef6-5581-481b-9e5b-689be48ccfd8,https://www.healthpoint.co.nz/pharmacy/pharmacy/unichem-willis-st-pharmacy/,pharmacy,True
-36.8365382,174.6011209,RedHills Pharmacy,im:3c799734-d143-4037-80d4-dd4214fd280d,https://www.healthpoint.co.nz/pharmacy/pharmacy/redhills-pharmacy/,pharmacy,False
-43.31404790000001,172.69767809999996,Pegasus Pharmacy,im:10683701-b02d-487a-a549-74b24e37418a,https://www.healthpoint.co.nz/pharmacy/pharmacy/pegasus-pharmacy/,pharmacy,True
-41.2805215,173.26970589999996,Victory Square Pharmacy,im:c2282b3f-da8a-4c03-8a6b-d406b76ad5f5,https://www.healthpoint.co.nz/pharmacy/pharmacy/victory-square-pharmacy/,pharmacy,True
-39.0740728,174.05950669999993,Pharmacy @ Carefirst,im:48083bfd-2a85-4d34-a44e-92fed1929abd,https://www.healthpoint.co.nz/pharmacy/pharmacy/pharmacy-carefirst/,pharmacy,True
-37.0651675,174.94372169999997,Unichem Papakura Pharmacy,im:89100510-c9bb-44a0-88e5-1688cec2a377,https://www.healthpoint.co.nz/pharmacy/pharmacy/unichem-papakura-pharmacy/,pharmacy,True
-41.27456129999999,173.28703810000002,Life Pharmacy Prices,im:8a52081f-e250-4020-a4cb-2a2002fff379,https://www.healthpoint.co.nz/pharmacy/pharmacy/life-pharmacy-prices/,pharmacy,True
-37.7996553,174.86859359999994,Raglan Pharmacy,im:444d9723-e27f-4f42-8e10-a6c2ea20bba3,https://www.healthpoint.co.nz/pharmacy/pharmacy/raglan-pharmacy/,pharmacy,True
-43.552819,172.5571268,Unichem Wigram Pharmacy,im:26d7f5e5-21cc-41c1-8a80-1bb3628cd616,https://www.healthpoint.co.nz/pharmacy/pharmacy/unichem-wigram-pharmacy/,pharmacy,True
-36.9223969,174.91370040000004,Botany Superclinic Pharmacy,im:72018836-7e29-43c3-85fb-b31efe9cedc8,https://www.healthpoint.co.nz/pharmacy/pharmacy/botany-superclinic-pharmacy/,pharmacy,True
-36.8680773,174.5991349,Unichem Kerimed Pharmacy,im:9a81270b-3f06-4794-8621-cbb3a9763f87,https://www.healthpoint.co.nz/pharmacy/pharmacy/unichem-kerimed-pharmacy/,pharmacy,True
-36.7934057,174.74836460000006,Lab Pharmacy,im:28ec22c2-25b0-4247-9d3b-32ff1bc6bcd3,https://www.healthpoint.co.nz/pharmacy/pharmacy/lab-pharmacy/,pharmacy,True
-39.0628726,174.0455568,Moturoa Pharmacy,im:8662650b-9696-42d8-9e6e-618b29baec22,https://www.healthpoint.co.nz/pharmacy/pharmacy/moturoa-pharmacy/,pharmacy,True
-41.16983219999999,174.82458129999998,Unichem Simon's Pharmacy,im:f35ee07c-23c8-4231-b4be-d7ba16fadfa9,https://www.healthpoint.co.nz/pharmacy/pharmacy/unichem-simons-pharmacy/,pharmacy,True
-43.5425839,172.5253403,Life Pharmacy Hornby,im:56777453-cf22-403d-bd70-bac34fb149a6,https://www.healthpoint.co.nz/pharmacy/pharmacy/life-pharmacy-hornby/,pharmacy,True
-46.1945005,168.8667301,Mataura Prescription and Gifts ,im:f8524cda-3a3d-4eb9-b332-c5cb98e8de85,https://www.healthpoint.co.nz/pharmacy/prescription-collection-depot/mataura-prescription-and-gifts/,pharmacy,False
-41.3189819,174.79496300000005,Unichem Kilbirnie Pharmacy,im:a2b8286d-095a-4e02-b14c-84a688ce4a18,https://www.healthpoint.co.nz/pharmacy/pharmacy/unichem-kilbirnie-pharmacy/,pharmacy,True
-43.57974859999999,172.56692980000003,Unichem Stantons Pharmacy Halswell,im:cdc8bf1b-62af-4a64-854f-920f779e1f42,https://www.healthpoint.co.nz/pharmacy/pharmacy/unichem-stantons-pharmacy-halswell/,pharmacy,True
-35.725773,174.32092439999997,Life Pharmacy Orrs,im:3ec1b5b8-e383-471f-8d7e-ffd0660e8ed1,https://www.healthpoint.co.nz/pharmacy/pharmacy/life-pharmacy-orrs/,pharmacy,True
-36.9369806,174.8802871,Highbrook Pharmacy,im:9387294f-97f4-4f09-8cf7-3da8a71622de,https://www.healthpoint.co.nz/pharmacy/pharmacy/highbrook-pharmacy/,pharmacy,True
-41.1365273,174.8388641,Life Pharmacy North City,im:4c643c5f-2bf0-4272-a519-d275a0e63120,https://www.healthpoint.co.nz/pharmacy/pharmacy/life-pharmacy-north-city/,pharmacy,True
-40.85992479999999,172.80582530000004,Golden Bay Pharmacy,im:5113ff89-7155-4013-ab0f-8c0feca4d821,https://www.healthpoint.co.nz/pharmacy/pharmacy/golden-bay-pharmacy/,pharmacy,True
-36.8421999,174.6514783,Unichem Peninsula Pharmacy,im:42d7aabe-6107-4b65-877b-a48b78df92c8,https://www.healthpoint.co.nz/pharmacy/pharmacy/unichem-peninsula-pharmacy/,pharmacy,True
-36.85454420000001,174.65095729999996,Unichem Harbour View Pharmacy,im:80c06d7b-b1d8-4fea-8c02-0ce660401b98,https://www.healthpoint.co.nz/pharmacy/pharmacy/unichem-harbour-view-pharmacy/,pharmacy,True
-37.6673243,175.150484,Roberts Ngaruawahia Pharmacy,im:dcfe3b00-f5e8-4cf3-be64-800e7d41664a,https://www.healthpoint.co.nz/pharmacy/pharmacy/roberts-ngaruawahia-pharmacy/,pharmacy,True
-37.89149829999999,178.3178055,Ruat흲ria Collection Depot - Gordon's Pharmacy,im:87bc3195-395a-4fe8-8bab-aba85cbcf44e,https://www.healthpoint.co.nz/pharmacy/prescription-collection-depot/ruatoria-collection-depot-gordons-pharmacy/,pharmacy,False
-36.8476598,174.77435220000007,Pharmacy at Quay Park,im:e209c65b-d934-437f-8fff-8915d53bb0c7,https://www.healthpoint.co.nz/pharmacy/pharmacy/pharmacy-at-quay-park/,pharmacy,True
-41.2928652,174.77571880000005,Unichem Cuba Mall Pharmacy,im:0fb4dc70-d9e0-49b9-b33f-1236093f5219,https://www.healthpoint.co.nz/pharmacy/pharmacy/unichem-cuba-mall-pharmacy/,pharmacy,True
-37.7198023,175.2413188,Tui Pharmacy Borman Road ,im:548c7cbb-c13c-4a8d-a334-6f237deb48fb,https://www.healthpoint.co.nz/pharmacy/pharmacy/tui-pharmacy-borman-road/,pharmacy,True
-37.7576428,175.24689890000002,Tui Pharmacy Te Rapa,im:c03d6692-be64-4414-a06d-f8497f577ab7,https://www.healthpoint.co.nz/pharmacy/pharmacy/tui-pharmacy-te-rapa/,pharmacy,True
-37.77938769999999,175.2762593,Tui Pharmacy Central,im:084aa0d5-b381-439b-a0f2-d523a8b64956,https://www.healthpoint.co.nz/pharmacy/pharmacy/tui-pharmacy-central/,pharmacy,True
-40.623645,175.29071909999993,Berrys Tararua Pharmacy,im:7ea99361-a5c4-4548-b6bf-093bbcbe9543,https://www.healthpoint.co.nz/pharmacy/pharmacy/berrys-tararua-pharmacy/,pharmacy,True
-43.9062192,171.7481344,Eastfield Pharmacy (formerly Tancred Street Dispensary),im:62bd8266-af33-4abc-ac91-ae3498009164,https://www.healthpoint.co.nz/pharmacy/pharmacy/eastfield-pharmacy-formerly-tancred-street/,pharmacy,True
-43.6027645,172.7213713,Lyttelton Pharmacy,im:0db7f1a7-efb4-4cc6-b67a-ddd7b30202a1,https://www.healthpoint.co.nz/pharmacy/pharmacy/lyttelton-pharmacy/,pharmacy,True
-40.3492282,175.6235943,Roses Unichem Pharmacy,im:87f127ae-0314-40f0-bf0b-518b5a1329e2,https://www.healthpoint.co.nz/pharmacy/pharmacy/roses-unichem-pharmacy/,pharmacy,True
-41.1795419,174.96045290000006,Taita Pharmacy,im:28b2202f-4537-45fa-81cf-a5704cd77ddf,https://www.healthpoint.co.nz/pharmacy/pharmacy/taita-pharmacy/,pharmacy,True
-37.748637,175.29345020000005,Tui Pharmacy Parkwood ,im:71277312-fda2-47c2-ab7c-51951fd3624e,https://www.healthpoint.co.nz/pharmacy/pharmacy/tui-pharmacy-parkwood/,pharmacy,True
-43.38309719999999,172.65671229999998,Unichem Fenwicks Pharmacy,im:89bbf97f-3f76-439b-9325-e5bd28fd546c,https://www.healthpoint.co.nz/pharmacy/pharmacy/unichem-fenwicks-pharmacy/,pharmacy,True
-46.3771612,168.3470402,Unichem Waikiwi Pharmacy,im:65cd9933-a25b-4e30-b470-f3ebc7586a5e,https://www.healthpoint.co.nz/pharmacy/pharmacy/unichem-waikiwi-pharmacy/,pharmacy,True
-36.90601319999999,174.7742012,Epsom Pharmacy 2008 Ltd,im:51b616e4-6901-4831-89fc-ff93643401d4,https://www.healthpoint.co.nz/pharmacy/pharmacy/epsom-pharmacy-2008-ltd/,pharmacy,True
-37.14214209999999,175.54400429999998,Pollen Street Pharmacy,im:3f1b2073-0f5e-4b7a-a024-12f1273372f2,https://www.healthpoint.co.nz/pharmacy/pharmacy/pollen-street-pharmacy/,pharmacy,True
-41.10860029999999,174.83741899999995,Titahi Bay Pharmacy,im:d5cf475d-59b1-41d2-95e5-170cb1a41c86,https://www.healthpoint.co.nz/pharmacy/pharmacy/titahi-bay-pharmacy/,pharmacy,True
-41.2843397,174.73828079999998,Unichem Karori Mall Pharmacy,im:9dae24b2-0036-48ab-a541-fc28ed4d5385,https://www.healthpoint.co.nz/pharmacy/pharmacy/unichem-karori-mall-pharmacy/,pharmacy,True
-41.282739,174.74540690000003,Unichem Marsden Village Pharmacy,im:8c4ebcf5-4060-40d9-bec6-775c049086b6,https://www.healthpoint.co.nz/pharmacy/pharmacy/unichem-marsden-village-pharmacy/,pharmacy,True
-41.2823898,174.77536759999998,Unichem Wellington Central Pharmacy,im:2531e65a-276a-4070-ac82-a88ccdcea8fe,https://www.healthpoint.co.nz/pharmacy/pharmacy/unichem-wellington-central-pharmacy/,pharmacy,True
-36.7366451,174.7250436,Healthcare Pharmacy Rosedale,im:fd592163-b17e-4ffe-8dce-1001249ffc2d,https://www.healthpoint.co.nz/pharmacy/pharmacy/healthcare-pharmacy-rosedale/,pharmacy,True
-36.91159359999999,174.7762679,Unichem Walls and Roche Pharmacy,im:2ba117a3-92ee-4a48-b582-986732739cef,https://www.healthpoint.co.nz/pharmacy/pharmacy/unichem-walls-and-roche-pharmacy/,pharmacy,True
-36.8465059,174.7658598,Unichem 115 Queen St. Pharmacy,im:54399979-6f41-4381-af56-859c854bf425,https://www.healthpoint.co.nz/pharmacy/pharmacy/unichem-115-queen-st-pharmacy/,pharmacy,True
-35.6830771,174.29935339999997,Unichem Kamo Dispensary,im:64381133-60ac-4d73-b3d1-d38822bbf6b8,https://www.healthpoint.co.nz/pharmacy/pharmacy/unichem-kamo-dispensary/,pharmacy,True
-37.7844015,176.327587,My Pharmacy Te Puke,im:9b748508-34fd-405f-a8f9-48a51e76ab8a,https://www.healthpoint.co.nz/pharmacy/pharmacy/my-pharmacy-te-puke/,pharmacy,True
-45.0365052,169.1972962,Antidote Lake Dunstan,im:e4ca5de5-19b6-4612-ac69-3bdb1a95c2e7,https://www.healthpoint.co.nz/pharmacy/pharmacy/antidote-lake-dunstan/,pharmacy,True
-36.8832403,174.76169240000002,Pharmacy 455,im:e6fbfc6f-60fa-4dfa-ad99-8fe9f6aaf152,https://www.healthpoint.co.nz/pharmacy/pharmacy/pharmacy-455/,pharmacy,True
-38.1296298,176.3024154,Tiaho Pharmacy,im:ebfc7d6f-d656-4702-a475-1092df640b37,https://www.healthpoint.co.nz/pharmacy/pharmacy/tiaho-pharmacy/,pharmacy,True
-36.8487579,174.748918,Auckland Central Pharmacy ,im:ee429632-f9a9-4f75-bfee-4bf25d8dbbef,https://www.healthpoint.co.nz/pharmacy/pharmacy/auckland-central-pharmacy/,pharmacy,True
-36.8738338,174.7838921,Clinic Pharmacy,im:f060a23c-b21a-49a2-81be-56ed52a6eb34,https://www.healthpoint.co.nz/pharmacy/pharmacy/clinic-pharmacy/,pharmacy,True
-36.9909881,174.85121030000005,Puhinui Pharmacy,im:67147686-e734-4183-bf0c-5dbed4f4e126,https://www.healthpoint.co.nz/pharmacy/pharmacy/puhinui-pharmacy/,pharmacy,True
-43.5620534,172.7392652,Redcliffs Pharmacy,im:0a867a7b-087d-4bdb-b2a1-59f8e317ee63,https://www.healthpoint.co.nz/pharmacy/pharmacy/redcliffs-pharmacy/,pharmacy,True
-36.7811474,174.72168729999999,Glenfield 7 Day Pharmacy Ltd,im:20a5fa67-7d2b-4991-ac06-8246ac332b24,https://www.healthpoint.co.nz/pharmacy/pharmacy/glenfield-7-day-pharmacy-ltd/,pharmacy,True
-41.1117319,173.01131179999993,Life Pharmacy Motueka,im:ee97d1c1-7109-4a3d-8c66-968d41d82557,https://www.healthpoint.co.nz/pharmacy/pharmacy/life-pharmacy-motueka/,pharmacy,True
-36.86054163337887,174.76943492889404,Auckland City Hospital Pharmacy,im:c503da54-eec2-46e5-ad4d-e9da2acc4237,https://www.healthpoint.co.nz/pharmacy/hospital-pharmacy/auckland-city-hospital-pharmacy/,pharmacy,True
-36.7383326,174.75349719999997,Unichem Mairangi Bay Pharmacy,im:ec9149d4-f936-4a6d-b4dd-b08e7b69c42c,https://www.healthpoint.co.nz/pharmacy/pharmacy/unichem-mairangi-bay-pharmacy/,pharmacy,True
-46.410961,168.35447009999996,Don Street Pharmacy ,im:efb6eec2-edcb-4a45-bc87-ef1a91558c9c,https://www.healthpoint.co.nz/pharmacy/pharmacy/don-street-pharmacy/,pharmacy,True
-39.9094251,175.05329600000005,Aramoho Pharmacy,im:a01a37be-c069-4d82-b031-12ac77c58c61,https://www.healthpoint.co.nz/pharmacy/pharmacy/aramoho-pharmacy/,pharmacy,True
-41.20396390000001,174.91205749999995,Connolly Street Pharmacy,im:1693342f-daf6-437c-b9c0-92d5dbba4331,https://www.healthpoint.co.nz/pharmacy/pharmacy/connolly-street-pharmacy/,pharmacy,True
-36.8822264,174.9974191,Unichem Beachlands Pharmacy,im:21d4c043-11f1-4466-aecf-843e3f42f777,https://www.healthpoint.co.nz/pharmacy/pharmacy/unichem-beachlands-pharmacy/,pharmacy,True
-37.7145271,176.3066271,Tara Road Pharmacy,im:1643c731-1d14-40db-b18d-79c1d936ac41,https://www.healthpoint.co.nz/pharmacy/pharmacy/tara-road-pharmacy/,pharmacy,True
-45.0129674,168.7414987,Five Mile Pharmacy Queenstown,im:78b36764-b920-458b-8b6f-704fe38d0a86,https://www.healthpoint.co.nz/pharmacy/pharmacy/five-mile-pharmacy-queenstown/,pharmacy,True
-37.7256208,176.13283920000003,Bongard's Pharmacy,im:60bce879-4e2e-4f0c-ae48-2bc39500caeb,https://www.healthpoint.co.nz/pharmacy/pharmacy/bongards-pharmacy/,pharmacy,False
-43.4978182,172.57279130000006,Kendal Pharmacy,im:5f9926b2-134d-4d27-9b72-c62bb05e83f9,https://www.healthpoint.co.nz/pharmacy/pharmacy/kendal-pharmacy/,pharmacy,True
-40.6225036,175.28558299999997,Unichem Levin Pharmacy,im:41f5d3ad-f3e3-4b04-9959-b71abaffc21a,https://www.healthpoint.co.nz/pharmacy/pharmacy/unichem-levin-pharmacy/,pharmacy,True
-36.74282649999999,174.695961,Unichem Rosedale Pharmacy,im:2df1319f-a45f-45e2-9f03-657ee7571926,https://www.healthpoint.co.nz/pharmacy/pharmacy/unichem-rosedale-pharmacy/,pharmacy,True
-36.92981899999999,174.84260770000003,Unichem Family Healthcare Pharmacy,im:176b4af5-c932-4001-87d1-94acb50385f6,https://www.healthpoint.co.nz/pharmacy/pharmacy/unichem-family-healthcare-pharmacy/,pharmacy,True
-36.7149481,174.7480029,Commodore Pharmacy,im:694b4be8-f73e-401f-82ff-9d71b33571fe,https://www.healthpoint.co.nz/pharmacy/pharmacy/commodore-pharmacy/,pharmacy,True
-36.9457784,174.8447281,Otahuhu Medical Clinic Pharmacy,im:115c217b-8945-4e97-a1af-19b19266bbcb,https://www.healthpoint.co.nz/pharmacy/pharmacy/otahuhu-medical-clinic-pharmacy/,pharmacy,True
-36.9190524,174.91793159999997,Millhouse Pharmacy,im:b69693ce-50ac-4d63-b5b3-0d6e75d40228,https://www.healthpoint.co.nz/pharmacy/pharmacy/millhouse-pharmacy/,pharmacy,True
-41.5300482,173.95589280000002,Unichem Redwoodtown Pharmacy,im:5043b56a-a54c-4038-8a5d-3e4b6691c5da,https://www.healthpoint.co.nz/pharmacy/pharmacy/unichem-redwoodtown-pharmacy/,pharmacy,True
-39.0686943,174.06794809999997,Tui Ora Pharmacy,im:71e89b95-c68e-4f41-96b3-a733d3b7acc3,https://www.healthpoint.co.nz/pharmacy/pharmacy/tui-ora-pharmacy/,pharmacy,True
-36.74718050000001,174.7395395,North Harbour Pharmacy,im:9d9da447-3b69-458e-9a3c-01a9e1825b5c,https://www.healthpoint.co.nz/pharmacy/pharmacy/north-harbour-pharmacy/,pharmacy,True
-45.0960529,170.97216950000006,North Otago Pharmacy,im:662d3435-57d2-478c-83fa-3b0ee9e6e879,https://www.healthpoint.co.nz/pharmacy/pharmacy/north-otago-pharmacy/,pharmacy,True
-36.9118342,174.8712361,Best Care Pharmacy,im:15b74cc4-109a-4f3a-808c-3c43ff9e12a1,https://www.healthpoint.co.nz/pharmacy/pharmacy/best-care-pharmacy/,pharmacy,True
-36.8135292,174.72638059999997,Dispensary Plus Pharmacy Birkenhead,im:d12db00c-f263-49d5-929b-71643660d14b,https://www.healthpoint.co.nz/pharmacy/pharmacy/dispensary-plus-pharmacy-birkenhead/,pharmacy,True
-43.4912198,172.61248219999993,Shields Pharmacy,im:4a0ef621-01b3-4644-ba00-57e8de605595,https://www.healthpoint.co.nz/pharmacy/pharmacy/shields-pharmacy/,pharmacy,True
-39.535198,176.848406,Glenns Pharmacy,im:2a00771f-15a3-4ccd-bd26-147ff9b110c8,https://www.healthpoint.co.nz/pharmacy/pharmacy/glenns-pharmacy/,pharmacy,False
-43.50991349999999,172.61934759999997,Remedy Pharmacy - St George's Hospital (Christchurch),im:51202fb6-a445-425b-9c8b-8217fe3c5ab1,https://www.healthpoint.co.nz/pharmacy/pharmacy/remedy-pharmacy-st-georges-hospital-christchurch/,pharmacy,True
-44.69594319999999,169.1355615,Aspiring Pharmacy Wanaka,im:d6cb4973-aab6-4293-8759-5b1f49c69142,https://www.healthpoint.co.nz/pharmacy/pharmacy/aspiring-pharmacy-wanaka/,pharmacy,True
-36.8965393,174.6265667,McLaren Park Pharmacy,im:ffb791b9-9efe-46a4-9be6-aeb807dc063d,https://www.healthpoint.co.nz/pharmacy/pharmacy/mclaren-park-pharmacy/,pharmacy,True
-37.2005739,174.9047008,Gary Logan Pharmacy,im:3a0a245e-628d-420a-9ab7-82b3b1d4096c,https://www.healthpoint.co.nz/pharmacy/pharmacy/gary-logan-pharmacy/,pharmacy,True
-37.6411737,176.18504970000004,Pharmacy 257,im:8e19f016-2c9a-4565-a171-eac3f3ef369a,https://www.healthpoint.co.nz/pharmacy/pharmacy/pharmacy-257/,pharmacy,True
-43.50695410000001,172.66245159999994,Shirley Dispensary,im:b89a1a87-61c8-4c62-b86c-62050fba7432,https://www.healthpoint.co.nz/pharmacy/pharmacy/shirley-dispensary/,pharmacy,True
-35.739766,174.2829154,Unichem Orrs Pharmacy Tui,im:6c6cf156-9def-4b56-ba7b-64d94123e083,https://www.healthpoint.co.nz/pharmacy/pharmacy/unichem-orrs-pharmacy-tui/,pharmacy,True
-43.5528734,172.5965675,Unichem Lincoln Road Pharmacy,im:564121fb-673b-40fd-83b6-ab87fc91f3d6,https://www.healthpoint.co.nz/pharmacy/pharmacy/unichem-lincoln-road-pharmacy/,pharmacy,True
-40.4728251,175.28125439999997,Gimbletts Pharmacy,im:7dc601a2-0861-49a9-b2d2-8f9cc2c9479d,https://www.healthpoint.co.nz/pharmacy/pharmacy/gimbletts-pharmacy/,pharmacy,True
-43.56607049999999,172.60447410000006,Hoon Hay Pharmacy Ltd,im:a8eef3ca-2e4a-4688-ad53-86f7eea7fd0a,https://www.healthpoint.co.nz/pharmacy/pharmacy/hoon-hay-pharmacy-ltd/,pharmacy,True
-39.5364805,176.8484948,Unichem Taradale Pharmacy,im:9f7e2a06-43e0-4934-9bb7-580ffb81eb3d,https://www.healthpoint.co.nz/pharmacy/pharmacy/unichem-taradale-pharmacy/,pharmacy,True
-46.412847,168.35129940000002,Unichem UFS Pharmacy,im:5ca3e7fc-add9-4570-9fa2-f6a55f334a2d,https://www.healthpoint.co.nz/pharmacy/pharmacy/unichem-ufs-pharmacy/,pharmacy,True
-43.5489924,172.68288529999995,Woolston Pharmacy,im:3ba1cddf-abf6-4948-8e45-939f81ed1130,https://www.healthpoint.co.nz/pharmacy/pharmacy/woolston-pharmacy/,pharmacy,True
-41.2861907,174.77589539999997,Unichem Plimmer Steps Pharmacy,im:0060b792-933f-46e9-98ba-81574155d965,https://www.healthpoint.co.nz/pharmacy/pharmacy/unichem-plimmer-steps-pharmacy/,pharmacy,True
-37.07020840000001,174.95916680000005,Papakura Marae Pharmacy,im:583162ff-5315-4158-93c1-7f750e9742d2,https://www.healthpoint.co.nz/pharmacy/pharmacy/papakura-marae-pharmacy/,pharmacy,True
-37.2759155,175.496446,Ngatea Pharmacy Ltd,im:32fd178b-736e-447a-b547-7b5806efd32f,https://www.healthpoint.co.nz/pharmacy/pharmacy/ngatea-pharmacy-ltd/,pharmacy,True
-43.5135859,172.6363917,St Albans Pharmacy,im:f0e112bb-fe39-47a7-89ca-6e173b10f5bb,https://www.healthpoint.co.nz/pharmacy/pharmacy/st-albans-pharmacy/,pharmacy,True
-46.394977,168.34775739999998,Gladstone Pharmacy (Invercargill),im:02cd8752-2838-417a-9f91-59be783cb1a8,https://www.healthpoint.co.nz/pharmacy/pharmacy/gladstone-pharmacy-invercargill/,pharmacy,True
-41.2749672,173.2865994,Collingwood Street Pharmacy,im:288c0b15-851e-44ed-a0d3-82df0ee49d07,https://www.healthpoint.co.nz/pharmacy/pharmacy/collingwood-street-pharmacy/,pharmacy,True
-43.5459617,172.5244596,Stay Well Pharmacy,im:ef520aed-7ef4-4855-847b-501bf78c3c9c,https://www.healthpoint.co.nz/pharmacy/pharmacy/stay-well-pharmacy/,pharmacy,True
-37.6422072,176.03796620000003,Omokoroa Pharmacy,im:dcf1deba-5833-4d49-9cf8-5dfb338bd760,https://www.healthpoint.co.nz/pharmacy/pharmacy/omokoroa-pharmacy/,pharmacy,True
-41.31598,174.81610720000003,Wellington Compounding Pharmacy,im:7baa882f-8978-40aa-9fc1-e33a87a7a6ee,https://www.healthpoint.co.nz/pharmacy/pharmacy/wellington-compounding-pharmacy/,pharmacy,True
-41.311616,174.778965,Unichem Newtown Mall Pharmacy,im:df49f115-783d-4534-8390-7e32a1a82414,https://www.healthpoint.co.nz/pharmacy/pharmacy/unichem-newtown-mall-pharmacy/,pharmacy,True
-37.5591229,175.15902570000003,Huntly Pharmacy Ltd,im:317ade1d-45dc-43ae-a646-616848212878,https://www.healthpoint.co.nz/pharmacy/pharmacy/huntly-pharmacy-ltd/,pharmacy,True
-45.8828845,170.34663690000002,Mosgiel Health Centre Pharmacy,im:e7076c30-6e62-40e5-b2fb-5a64334a2c3e,https://www.healthpoint.co.nz/pharmacy/pharmacy/mosgiel-health-centre-pharmacy/,pharmacy,True
-36.7743863,174.7339307,CompoundLabs - Compounding Pharmacy,im:01605c5b-eea4-4a91-8e34-5579c8ce4f75,https://www.healthpoint.co.nz/pharmacy/pharmacy/compoundlabs-compounding-pharmacy/,pharmacy,False
-41.2890175,174.00714389999996,Picton Healthcare Pharmacy,im:2b88f585-81d0-4a0e-9c32-554b12bf6720,https://www.healthpoint.co.nz/pharmacy/pharmacy/picton-healthcare-pharmacy/,pharmacy,True
-37.257874,174.94671070000004,Family Health Pharmacy (Tuakau),im:646a8f33-cf5a-4f5f-ba89-70a416c3487a,https://www.healthpoint.co.nz/pharmacy/pharmacy/family-health-pharmacy-tuakau/,pharmacy,True
-40.6228615,175.28505569999993,Levin Mall Pharmacy,im:23dff7e1-2fee-4145-a305-884e9d1f4caa,https://www.healthpoint.co.nz/pharmacy/pharmacy/levin-mall-pharmacy/,pharmacy,True
-46.12129119999999,169.95900270000004,Milton Pharmacy Ltd,im:c274e7a8-9498-4573-b0cd-0ce1ae57ddf1,https://www.healthpoint.co.nz/pharmacy/pharmacy/milton-pharmacy-ltd/,pharmacy,True
-39.62524789999999,176.78800939999996,Flaxmere Pharmacy,im:819b37e2-f538-435d-8f21-d34d27af43ad,https://www.healthpoint.co.nz/pharmacy/pharmacy/flaxmere-pharmacy/,pharmacy,True
-36.8335805,175.70492539999998,Mercury Bay Pharmacy,im:e47c92d3-4b49-4541-a3b6-9b7eeba43129,https://www.healthpoint.co.nz/pharmacy/pharmacy/mercury-bay-pharmacy/,pharmacy,True
-39.5106473,176.8695948,Tamatea Pharmacy,im:3c32d121-d3b1-4a4b-8bd9-94e6203b6c4c,https://www.healthpoint.co.nz/pharmacy/pharmacy/tamatea-pharmacy/,pharmacy,True
-39.34026149999999,174.2847339,Unichem Mackays Pharmacy,im:d9d8fb09-80bf-451c-a7d9-74e2b3bbf0b4,https://www.healthpoint.co.nz/pharmacy/pharmacy/unichem-mackays-pharmacy/,pharmacy,True
-35.1148291,173.2648269,Far North Pharmacy,im:e01cbe1d-58b2-4f63-a508-540d17e1d6c4,https://www.healthpoint.co.nz/pharmacy/pharmacy/far-north-pharmacy/,pharmacy,True
-36.895417,174.93136219999997,Fencibles Pharmacy,im:2ce0ff1e-ed2f-413e-97b8-b6365c877285,https://www.healthpoint.co.nz/pharmacy/pharmacy/fencibles-pharmacy/,pharmacy,True
-45.08087069999999,170.98245099999997,Unichem Northend Pharmacy,im:6f692c56-09ed-4cca-8b6c-33a7932557e1,https://www.healthpoint.co.nz/pharmacy/pharmacy/unichem-northend-pharmacy/,pharmacy,True
-43.5355563,172.52084579999996,Hei Hei Pharmacy (2019) Ltd,im:8355dbb7-527d-429c-9162-1e1d4524e0d1,https://www.healthpoint.co.nz/pharmacy/pharmacy/hei-hei-pharmacy-2019-ltd/,pharmacy,True
-40.35956530000001,175.61116470000002,Unichem Chemist Shop,im:119ae5db-1aba-43c9-9ed1-e5581a784162,https://www.healthpoint.co.nz/pharmacy/pharmacy/unichem-chemist-shop/,pharmacy,True
-41.2088214,174.90865280000003,Unichem Kopata Pharmacy,im:31e172c6-547d-437b-b9e0-8bf88c1a621a,https://www.healthpoint.co.nz/pharmacy/pharmacy/unichem-kopata-pharmacy/,pharmacy,False
-39.9325024,175.0508297,Central City Pharmacy,im:c7454234-9992-4331-8534-1f91f9a9657f,https://www.healthpoint.co.nz/pharmacy/pharmacy/central-city-pharmacy/,pharmacy,True
-40.3298876,175.6133408,Milson Pharmacy,im:b3ae4478-d7f2-4c2a-aaaf-3f046de6020e,https://www.healthpoint.co.nz/pharmacy/pharmacy/milson-pharmacy/,pharmacy,True
-43.5101254,172.62036,Merivale Medical Pharmacy,im:c02f3f2e-703c-4b81-b5ac-b2bf5cde8dd9,https://www.healthpoint.co.nz/pharmacy/pharmacy/merivale-medical-pharmacy/,pharmacy,True
-43.5481628,172.6220469,Selwyn Village Pharmacy,im:42f547e4-29e2-41a9-a85b-834f608efdae,https://www.healthpoint.co.nz/pharmacy/pharmacy/selwyn-village-pharmacy/,pharmacy,False
-37.8083426,175.27139239999997,South City Health Pharmacy,im:d25b05bb-c4a8-4365-9eb5-9dc0681aca73,https://www.healthpoint.co.nz/pharmacy/pharmacy/south-city-health-pharmacy/,pharmacy,True
-41.24819049999999,174.7743775,Village Pharmacy Ngaio,im:4df3640a-fa2b-443e-aec8-c5cbbdda3c0e,https://www.healthpoint.co.nz/pharmacy/pharmacy/village-pharmacy-ngaio/,pharmacy,True
-40.3568109,175.5895756,Botanical Road Pharmacy,im:b101485b-bd38-459a-9758-460c2e20c04a,https://www.healthpoint.co.nz/pharmacy/pharmacy/botanical-road-pharmacy/,pharmacy,True
-40.3373811,175.86719790000006,Woodville Medicine Depot,im:1f85982a-4a43-4f6f-a2b2-70f9f94e2d6f,https://www.healthpoint.co.nz/pharmacy/prescription-collection-depot/woodville-medicine-depot/,pharmacy,False
-35.2612044,174.1222656,Russell Healthspot - Pharmacy Depot,im:a4bca781-414e-42b4-89c1-829fb4b32be6,https://www.healthpoint.co.nz/pharmacy/prescription-collection-depot/russell-healthspot-pharmacy-depot/,pharmacy,False
-38.14125629999999,176.2465092,Ranolf Pharmacy,im:1478cb90-e79f-43e9-8400-1ff1e9a1dc79,https://www.healthpoint.co.nz/pharmacy/pharmacy/ranolf-pharmacy/,pharmacy,True
